source,externalId,name,address,latitude,longitude,city,country,email,website,logo,secondaryUrl,images,industry,description
helfenberlin,,Gainsbourg Bar,"Jeanne-Mammen-Bogen 576/577, 10623 Berlin",52.504729,13.3246689,Berlin,Germany,,,,https://helfen-shop.berlin/dein-unternehmen/gainsbourg-bar/,https://helfen-shop.berlin/wp-content/uploads/2020/03/728b0069-e480-492b-b30d-04bbf52fdd79.jpeg,,Think positiv
helfenberlin,,"TapBeat, International Tap Dance Center","Jeanne-Mammen-Bogen 580-581, 10623 Berlin",52.5047245,13.3237073,Berlin,Germany,,,,https://helfen-shop.berlin/dein-unternehmen/tapbeat-international-tap-dance-center/,https://helfen-shop.berlin/wp-content/uploads/2020/03/160fc9dd-0889-4051-8a2c-113f4bd31948.jpg,,"Wir sind einen Tanzstudio mit Schwerpunkt Tap Dance (Stepptanz). Wegen der Schließung befinden wir uns in extreme finanziellen Not, da Einnahmen ausfallen. Neue Kurse, Workshops, neue Schüler fallen aus. Um die laufende Kosten (Miete, Lehrerhonorare usw.) weiter zahlen zu können, wäre wir herzlich dankbar für jede Hilfe."
helfenberlin,,Viticula Wein&Feinkost,"Rudolf-Breitscheid-Allee 95, 15366 Berlin",52.5226921,13.677947,Berlin,Germany,,,,https://helfen-shop.berlin/dein-unternehmen/viticula-weinfeinkost/,https://helfen-shop.berlin/wp-content/uploads/2020/03/8f236327-1ea5-44fd-bfab-6f4954e0b2d0-scaled.jpg,,Kleines Café am Rande Berlins.
helfenberlin,,GENUSSWANDEL,"Brandenburgische Strasse 27, 12159 Berlin",52.4976276,13.308121,Berlin,Germany,,,,https://helfen-shop.berlin/dein-unternehmen/genusswandel/,https://helfen-shop.berlin/wp-content/uploads/2020/03/6a198dce-c2af-42b6-9c78-1c59056d024a.jpg,,"Gönn’ dir deine ganzheitliche, individuelle Begleitung bei Gewichtsreduktion und Ernährungsumstellung"
helfenberlin,,Sportshop Fairplay,"Johannisthaler Chaussee 425, 12351 Berlin",52.4240483,13.4408534,Berlin,Germany,,,,https://helfen-shop.berlin/dein-unternehmen/sportshop/,https://helfen-shop.berlin/wp-content/uploads/2020/03/Bild-Helfen.berlin.png,,"Dein Teamsport und Sneaker Store, wir bedrucken eure Shirts und vieles mehr"
helfenberlin,,HAARWERKSTATT – Friedrich-Ebert-Str. 27/28,"Friedrich-Ebert-Str. 27/28, 14467 Potsdam",52.4028176,13.0580926,Potsdam,Germany,,,,https://helfen-shop.berlin/dein-unternehmen/haarwerkstatt-friedrich-ebert-str-27-28/,https://helfen-shop.berlin/wp-content/uploads/2020/03/Salon-Potsdam.jpg,,WIR SAGEN DANKE!
helfenberlin,,Café Krümelkeks / Eiscafé,"Aller der Kosmonauten 151F, 12685 Berlin",52.53481,13.5517,Berlin,Germany,,,,https://helfen-shop.berlin/dein-unternehmen/cafe-kruemelkeks-eiscafe/,https://helfen-shop.berlin/wp-content/uploads/2020/03/64081fd7-16df-4923-91b0-c6b7126d605a.jpeg,,Kommt auf ein leckeres Eis oder hausgemachten Kuchen vorbei.
helfenberlin,,19grams,"Karl-Liebknecht-Strasse 13, 10178 Berlin",52.5224943,13.4074279,Berlin,Germany,,,,https://helfen-shop.berlin/dein-unternehmen/19grams/,https://helfen-shop.berlin/wp-content/uploads/2020/03/15f754ee-3753-4568-8986-203a6446e1f4.jpg,,"Durch die Coronavirus Krise mussten wir all unsere 19grams Cafés schließen und leider auch für unsere über 50 Baristas Kurzarbeit beantragen. Wir versuchen alles, um die Menschen, die uns geholfen haben unsere kleine Specialty Coffee Welt aufzubauen so lange wie möglich bei uns zu halten und so weit es geht zu bezahlen. Mittlerweile hängt unser ganzes Geschäft an unserem Online Shop und wir freuen uns wahnsinnig, wenn ihr uns unterstützt."
helfenberlin,,Zur Glocke Restaurant,"Mecklenburgische Straße 14, 10713 Berlin",52.4821477,13.3158565,Berlin,Germany,,,,https://helfen-shop.berlin/dein-unternehmen/zur-glocke-restaurant/,https://helfen-shop.berlin/wp-content/uploads/2020/03/Zur-Glocke-Restaurant-_230320.jpg,,Unterstützung für die Glocke
helfenberlin,,Café Desd,"Schulzendorfer Strasse 13, 13347 Berlin",52.5401707,13.3753938,Berlin,Germany,,,,https://helfen-shop.berlin/dein-unternehmen/cafe-desd/,https://helfen-shop.berlin/wp-content/uploads/2020/03/6b505899-faf1-4eeb-a491-13ea80f28dbd.jpeg,,"Kaffee, Kuchen, Quiche, Sandwiches, Backwaren"
helfenberlin,,Café UMA – Ayurvedische und vegetarische Spezialitäten,"Friedrich-Wilhelm-Platz 3, 12161 Berlin",52.4729163,13.3275288,Berlin,Germany,,,,https://helfen-shop.berlin/dein-unternehmen/cafe-uma-ayurvedische-und-vegetarische-spezialitaeten/,https://helfen-shop.berlin/wp-content/uploads/2020/03/a861ca87-3981-4d8c-b67d-570030cb6c66.jpg,,Café UMA – Ayurvedische und vegetarische Spezialitäten
helfenberlin,,Berliner Hutsalon Coy – art to wear,"Rosenthaler Str. 40 Hof 8, 10178 Berlin",52.5240159,13.4023943,Berlin,Germany,,,,https://helfen-shop.berlin/dein-unternehmen/berliner-hutsalon-coy-art-to-wear/,https://helfen-shop.berlin/wp-content/uploads/2020/03/1f6eea50-96fe-445b-9447-b2f09eead9c8.jpg,,"Hüte, Kappen, Mützen, Kopfschmuck in den Hackeschen Höfen in idyllische Hof 8"
helfenberlin,,The Hidden by Daniel‘s Eatery,"Heinrich-Roller-Strasse 8, 10405 Berlin",52.5299436,13.4243381,Berlin,Germany,,,,https://helfen-shop.berlin/dein-unternehmen/the-hidden-by-daniels-eatery/,https://helfen-shop.berlin/wp-content/uploads/2020/03/The-Hidden-by-Daniel%E2%80%98s-Eatery-250320-scaled.jpg,,Supperclubs & Kochevents
helfenberlin,,Flamingo Fresh Food Bar,"Neustädtische Kirchstr. 8, 10117 Berlin",52.5194237,13.3855602,Berlin,Germany,,,,https://helfen-shop.berlin/dein-unternehmen/flamingo-fresh-food-bar/,https://helfen-shop.berlin/wp-content/uploads/2020/03/Flamingo-Fresh-Food-Bar-250320.jpg,,"Eigentlich wird Im Flamingo täglich frisch und lecker von unserem zauberhaften Team für Dich gekocht. Aber aktuell, da können wir das leider nicht, deswegen brauchen wir bitte deine Hilfe! Vielen Dank & bis bald!"
helfenberlin,,Loretta an der Spree,"Mildred-Harnack-Straße 11, 10243 Berlin",52.5056086,13.4424735,Berlin,Germany,,,,https://helfen-shop.berlin/dein-unternehmen/loretta-an-der-spree/,https://helfen-shop.berlin/wp-content/uploads/2020/03/Loretta-an-der-Spree-240320.jpg,,"In unserem Restaurant bieten wir Ihnen geschmackvolle, deutsche Küche sowie gepflegte Bierkultur."
helfenberlin,,BurgerHouse,"Reichenberger Strasse 174, 10999 Berlin",52.49966,13.4172701,Berlin,Germany,,,,https://helfen-shop.berlin/dein-unternehmen/burgerhouse/,https://helfen-shop.berlin/wp-content/uploads/2020/03/Teller_2.jpg,,Burger
helfenberlin,,Aromas Cafe,"Marienburger Strasse 26 A, 10405 Berlin",52.5332066,13.4287377,Berlin,Germany,,,,https://helfen-shop.berlin/dein-unternehmen/aromas-cafe/,https://helfen-shop.berlin/wp-content/uploads/2020/03/Aromas-Cafe-240320.jpeg,,Vielen Dank für alle Unterstützer….in der Hoffnung auf ein baldiges persönliches Wiedersehen….Mit herzlichen Grüssen Katrin/Inhaberin
helfenberlin,,Restaurant Timeless,"Kaiserin-Augusta-Allee 92, 10589 Berlin",52.5255104,13.3113491,Berlin,Germany,,,,https://helfen-shop.berlin/dein-unternehmen/restaurant-timeless/,https://helfen-shop.berlin/wp-content/uploads/2020/03/Teller_2.jpg,,Restaurant Timeless
helfenberlin,,La Cantine d’Augusta,"Langenscheidtstrasse 6/6a, 10827 Berlin",52.4891902,13.3620169,Berlin,Germany,,,,https://helfen-shop.berlin/dein-unternehmen/la-cantine-daugusta/,https://helfen-shop.berlin/wp-content/uploads/2020/03/La-Cantine-d_Augusta-240320-1.jpg,,"Wein, Käse und Feinkost"
helfenberlin,,LOCKE & GLATZE,"Greifswalder Strasse 191, 10405 Berlin",52.5357977,13.4319281,Berlin,Germany,,,,https://helfen-shop.berlin/dein-unternehmen/locke-glatze/,https://helfen-shop.berlin/wp-content/uploads/2020/03/24f99815-d2aa-4e16-b208-28bdddf09769-scaled.jpg,,28 Jahre Friseur LOCKE & GLATZE dürfen nicht untergehen. DANKE!
helfenberlin,,Naschpunkt,"Schivelbeiner Strasse 10, 10439 Berlin",52.5510876,13.4108382,Berlin,Germany,,,,https://helfen-shop.berlin/dein-unternehmen/naschpunkt/,https://helfen-shop.berlin/wp-content/uploads/2020/03/e0dbfe7d-6c46-45aa-84f2-28f77da9e5be-scaled.jpg,,"Gutscheine zu kaufen für Kuchen, Torte und Kaffee helfen uns unser junges Café zu erhalten. Danke ! Wir freuen uns bald wieder für Euch da zu sein!"
helfenberlin,,Steffi Mode & Accessoires,"Waidmannsluster Damm 189, 13469 Berlin",52.6077776,13.3225357,Berlin,Germany,,,,https://helfen-shop.berlin/dein-unternehmen/steffi-mode-accessoires/,https://helfen-shop.berlin/wp-content/uploads/2020/03/503d1e08-7518-455b-8a6c-a42e1f921416.jpg,,One Woman power..jede Hilfe zählt für mich
helfenberlin,,MASKWORLD Store,"Oranienburger Straße 86a, 10178 Berlin",52.5235626,13.3998193,Berlin,Germany,,,,https://helfen-shop.berlin/dein-unternehmen/maskworld-store/,https://helfen-shop.berlin/wp-content/uploads/2020/03/489541c6-059a-42cb-be6b-6b6340c36fb4.jpg,,"Die Anlaufstelle für Halloween, Karneval, Events und (fast) alle anderen Gelegenheiten: Im MASKWORLD Store findet Ihr auf 5 Floors eine große Auswahl Kostüme, Masken, Accessoires, original lizenzierte Sammlerstücke und vieles mehr."
helfenberlin,,Zitrone Kinderschuhe,"Reichenberger Strasse 63, 10999 Berlin",52.49533,13.4304,Berlin,Germany,,,,https://helfen-shop.berlin/dein-unternehmen/zitrone-kinderschuhe/,https://helfen-shop.berlin/wp-content/uploads/2020/03/Hand_1.jpg,,"Mein kleiner Kinderschuhladen liegt im Herzen Kreuzbergs. Die kleinen Füße liegen uns sehr am Herzen, deshalb bleibt uns treu, damit wir bald wieder für euch da sind. Angucken, anprobieren, wohlfühlen."
helfenberlin,,Art.City.People.: Creative Space & Craft Coffee,"Oranienburger Strasse 32, 10117 Berlin",52.5253603,13.3938946,Berlin,Germany,,,,https://helfen-shop.berlin/dein-unternehmen/art-city-people-creative-space-craft-coffee/,https://helfen-shop.berlin/wp-content/uploads/2020/03/b878b134-73a6-4918-a9fb-9511b1827d88.png,,Best Coffee? Tea? Cocktail? Russian Medovik? OK! Art-Party “Wein trinken und malen”? OK!
helfenberlin,,Mojewa Food Truck,"Braunschweiger Straße 72, 12055 Berlin",52.4708377,13.4438914,Berlin,Germany,,,,https://helfen-shop.berlin/dein-unternehmen/mojewa-food-truck/,https://helfen-shop.berlin/wp-content/uploads/2020/03/9319cd26-faf8-436b-88bc-55dd47ba022d.jpeg,,"SURRITO ist eine Fusion aus Burrito und Sushi “Sushi-Burrito” zum Beispiel mit veganen Gambas aus Konjakwurzel im Tempura Kokos Mantel gebacken oder unserem leckeren Knusprigen NO- Chicken getoppt mit knackigem Bio Gemüse.
 Don’t panic it’s organic. Danke für Eure Unterstützug!"
helfenberlin,,Friseur Kaplan,"Kaiser-Wilhelm-Straße 54, 12247 Berlin",52.4340401,13.341536,Berlin,Germany,,,,https://helfen-shop.berlin/dein-unternehmen/friseur-kaplan/,https://helfen-shop.berlin/wp-content/uploads/2020/03/Friseur-Kaplan-250320.jpeg,,"Seit über 6 Jahren führen meine Tochter und Ich das familienfreundliche Kleinunternehmen, auch bekannt als Kiez-Friseur in Berlin-Lankwitz.
 Wir schätzen Sie sehr und sind für jede Hilfe dankbar!"
helfenberlin,,Kaiser Friedrich Herrenhemden,"Kaiser-Friedrich-Str. 1A, 10585 Berlin",52.51897,13.29905,Berlin,Germany,,,,https://helfen-shop.berlin/dein-unternehmen/kaiser-friedrich-herrenhemden/,https://helfen-shop.berlin/wp-content/uploads/2020/03/Kaiser-Friedrich-Herrenhemden-250320.jpg,,"Bunte Herrenhemden, made in Berlin."
helfenberlin,,Gutshaus Neukladow,"Neukladower Allee 9 – 12, 14089 Berlin",52.45921,13.15693,Berlin,Germany,,,,https://helfen-shop.berlin/dein-unternehmen/gutshaus-neukladow/,https://helfen-shop.berlin/wp-content/uploads/2020/03/Gutshaus-Neukladow_27032020.png,,"Genießen Sie täglich frische Kuchen, Snacks und regionale Speisen direkt am Havelufer im historischen Gutspark Neukladow"
helfenberlin,,HAARWERKSTATT – Alte Schönhauser Str. 42,"Alte Schönhauser Str. 42, 10119 Berlin",52.5262958,13.4077578,Berlin,Germany,,,,https://helfen-shop.berlin/dein-unternehmen/haarwerkstatt-alte-schoenhauser-str-42/,https://helfen-shop.berlin/wp-content/uploads/2020/03/Salon-Berlin-Mitte-min-scaled.jpg,,WIR SAGEN DANKE!
helfenberlin,,Vivi’s Bazaar,"Joachim-Friedrich-Str.19, 10711 Berlin",52.4990552,13.296753,Berlin,Germany,,,,https://helfen-shop.berlin/dein-unternehmen/vivis-bazaar/,https://helfen-shop.berlin/wp-content/uploads/2020/03/Vivi%E2%80%99s-Bazaar-240320.jpeg,,Erschwinglicher Luxus und Vintage-Mode namhafter Designer in Berlins größtem Vintage-Store am Kurfürstendamm
helfenberlin,,Schneiderei Haj,"Westfälische Straße 50 A, 10711 Berlin",52.49653,13.2921801,Berlin,Germany,,,,https://helfen-shop.berlin/dein-unternehmen/schneiderei-haj/,https://helfen-shop.berlin/wp-content/uploads/2020/03/Schneiderei-Halensee_230320.jpg,,"Mehr Nachhaltigkeit im Kleiderschrank – reparieren statt wegwerfen. Wir ändern, passen an und machen schöner"
helfenberlin,,Haarstudio Nicole Hauß,"Waidmannsluster Damm 189, 13469 Berlin",52.6077776,13.3225357,Berlin,Germany,,,,https://helfen-shop.berlin/dein-unternehmen/haarstudio-nicole-hauss/,https://helfen-shop.berlin/wp-content/uploads/2020/03/Haarstudio1.jpg,,"Vielen Dank, wir freuen uns auf euch!"
helfenberlin,,FUNK Optik Berlin,"Oranienburger Straße 87, 10178 Berlin",52.52355,13.4002493,Berlin,Germany,,,,https://helfen-shop.berlin/dein-unternehmen/funk-optik-berlin/,https://helfen-shop.berlin/wp-content/uploads/2020/03/a43519c4-48c0-4256-870a-b5a759104423.jpg,,"Wir sind FUNK. Eine Brillenmanufaktur. Drei Brands. Vier Optikstores.
 
 Heute ist FUNK im bayrischen Kinsau eine der letzten echten Brillenmanufakturen in Deutschland. Dort entstehen Brillen nach traditioneller Handwerkskunst mit hohem Qualitätsanspruch und nachhaltiger Prämisse. Dieter Funk und seine Frau Sashee Schuster verwenden für ihre Kollektionen z.B. Recycling- oder Vintage-Acetat und sogar Naturmaterialien., Bei FUNKoptik in Berlin Mitte erleben Sie nicht nur das gesamte eigene Produktportfolio – die Marken Dieter Funk, Sashee Schuster und FUNK Food Eyewear, sondern auch Kollektionen von Nachwuchsdesignern und etablierten Creator Brands aus der ganzen Welt. Zusätzlich ist unser Innenhof nicht nur eine Ruhe-Oase ganz in der Nähe der Hackeschen Höfe, sondern Sie können gleichzeitig einen Blick in unsere gläserne Manufaktur werfen, wo wir für Sie auch individuell Brillen nach Maß bauen.
 
 Selbstverständlich bietet das kompetente Optiker-Team den kompletten optischen Service wie Sehtest, Kontaktlinsenanpassung, Videozentrierung und dies alles mit Unterstützung modernster Geräte."
helfenberlin,,CrossFit Icke,"Wilhelm-Kabus-Straße 40, 10829 Berlin",52.4818211,13.3656658,Berlin,Germany,,,,https://helfen-shop.berlin/dein-unternehmen/crossfit-icke/,https://helfen-shop.berlin/wp-content/uploads/2020/03/Hand_1.jpg,,"CrossFit Icke ist ein Kiez-Fitnessstudio für CrossFit, funktionelles Training ,Yoga, Fitnesstraining für Kinder & Jugendliche. Wir sind von den aktuellen Schließungen stark betroffen."
helfenberlin,,OYA Massage im Rolling Tiger Projekt,"Reichenberger Str. 61 a, 10999 Berlin",52.4955319,13.429587,Berlin,Germany,,,,https://helfen-shop.berlin/dein-unternehmen/oya-massage-im-rolling-tiger-projekt/,,,Fantastische Massagen und Coaching
helfenberlin,,Mirage Bistrot,"Reinickendorfer Str 110, 13347 Berlin",52.5451948,13.3699057,Berlin,Germany,,,,https://helfen-shop.berlin/dein-unternehmen/mirage-bistrot/,https://helfen-shop.berlin/wp-content/uploads/2020/03/Hand_1.jpg,,"Das französische Mirage Bistrot im Wedding mit Gutscheinen gültig für unseren leckeren Weekend-Brunch mit den Klassikern Egg Benedict, Benecado, Florentine und Royale – wir freuen uns auf Euch!"
helfenberlin,,Hani Beauty – Hellersdorf,"Landsberger Chaussee 17, 16356 Berlin",52.5493491,13.5998086,Berlin,Germany,,,,https://helfen-shop.berlin/dein-unternehmen/hani-beauty-hellersdorf/,https://helfen-shop.berlin/wp-content/uploads/2020/03/9ea7d5f7-2408-45d0-9f42-7f97b0499ab1-scaled.jpg,,Thank You! From Hani with Love!
helfenberlin,,Myam Stix,"Landsberger Chaussee 17, 16356 Berlin",52.5493491,13.5998086,Berlin,Germany,,,,https://helfen-shop.berlin/dein-unternehmen/myam-stix/,https://helfen-shop.berlin/wp-content/uploads/2020/03/5b644a22-7d72-4f9e-9d91-aea0c134d6e8.jpg,,Wir sagen Danke!
helfenberlin,,Kutumba,"Märkische Allee 176-178, 12681 Berlin",52.5416766,13.5420959,Berlin,Germany,,,,https://helfen-shop.berlin/dein-unternehmen/kutumba/,https://helfen-shop.berlin/wp-content/uploads/2020/03/4e941c8f-503f-410c-a595-3557805cc35a.jpg,,Die Familienerlebniswelt im LeProm
helfenberlin,,La Pica de Deli Mel,"Freienwalder Strasse 14, 13055 Berlin",52.5431969,13.495324,Berlin,Germany,,,,https://helfen-shop.berlin/dein-unternehmen/la-pica-de-deli-mel/,https://helfen-shop.berlin/wp-content/uploads/2020/03/1878f06e-ba79-4faf-8588-1063be1050fc.jpg,,Chilenische Spezialitäten
helfenberlin,,Frameworks Berlin,"Reichenberger Straße 28, 10999 Berlin",52.4978174,13.421814,Berlin,Germany,,,,https://helfen-shop.berlin/dein-unternehmen/frameworks-berlin/,https://helfen-shop.berlin/wp-content/uploads/2020/03/Frameworks-Berlin_25032020-rotated.jpeg,,The Art of sustainable Picture Framing
helfenberlin,,friedrich,"Hermann-Hesse-Straße 20, 13156 Berlin",52.58056,13.3994801,Berlin,Germany,,,,https://helfen-shop.berlin/dein-unternehmen/friedrich/,https://helfen-shop.berlin/wp-content/uploads/2020/03/friedrich_27032020.jpg,,"Gestatten, friedrich! Vielen Dank für eure Unterstützung und bis bald!"
helfenberlin,,Bs Aufs Messer Records,"Marchlewski Strasse 107, 10243 Berlin",52.5080724,13.4494821,Berlin,Germany,,,,https://helfen-shop.berlin/dein-unternehmen/bs-aufs-messer-records/,https://helfen-shop.berlin/wp-content/uploads/2020/03/Bs-Aufs-Messer-Records-240320.jpg,,"Wir sind ein Plattenladen in Berlin, der vorwiegend mit Vinyl & Tapes handelt. Dabei konzentrieren wir uns auf Genre / Bands weitab vom Mainstream"
helfenberlin,,auszeit,"Hermann-Hesse-Straße 15, 13156 Berlin",52.5802437,13.4010095,Berlin,Germany,,,,https://helfen-shop.berlin/dein-unternehmen/auszeit/,https://helfen-shop.berlin/wp-content/uploads/2020/03/Auszeit.jpg,,auszeit cafe+restaurant+bar aus Pankow/Niederschönhausen. Wir bedanken uns recht herzlich bei allen die uns in dieser Zeit unterstützen! Vielen Dank und hoffentlich bis bald!
helfenberlin,,juggleHUB Coworking,"Christburger Strasse 23, 10405 Berlin",52.5347729,13.4305697,Berlin,Germany,,,,https://helfen-shop.berlin/dein-unternehmen/jugglehub-coworking/,https://helfen-shop.berlin/wp-content/uploads/2020/03/juggleHUB-Coworking-240320-1.jpeg,,Coworking und Café mit optionaler flexibler Kinderbetreuung
helfenberlin,,Beba,"Niederkirchnerstrasse 7, 10963 Berlin",52.5070801,13.381871,Berlin,Germany,,,,https://helfen-shop.berlin/dein-unternehmen/beba/,https://helfen-shop.berlin/wp-content/uploads/2020/03/Beba-240320.png,,Beba can now feed you at home! Spoil yourself with treats for the weekend (more details on our website)
helfenberlin,,Miss Green Bean,"Brandenburger Straße 34, 14467 Berlin",52.4007296,13.05818,Berlin,Germany,,,,https://helfen-shop.berlin/dein-unternehmen/miss-green-bean/,https://helfen-shop.berlin/wp-content/uploads/2020/03/Kaffee_2.jpg,,Zweites Zuhause – Café mit homemade gesundem Essen und Bio-Kaffee
helfenberlin,,Haarwerkstatt BLACK LABEL Berlin,"Alte Schönhauser Str. 9, 10119 Berlin",52.5272524,13.4079319,Berlin,Germany,,,,https://helfen-shop.berlin/dein-unternehmen/haarwerkstatt-black-label-berlin/,https://helfen-shop.berlin/wp-content/uploads/2020/03/HAARWERKSTATT-GmbH-240320-1.jpg,,WIR SAGEN DANKE!
helfenberlin,,healthy glow I Airbrush I Tanning I Beauty,"Kleine Hamburger Str. 3, 10115 Berlin",52.52814,13.39442,Berlin,Germany,,,,https://helfen-shop.berlin/dein-unternehmen/healthy-glow-i-airbrush-i-tanning-i-beauty/,https://helfen-shop.berlin/wp-content/uploads/2020/03/healthy-glow-I-Airbrush-I-Tanning-I-Beauty-230320-scaled.jpg,,"healthy glow ist ein Kosmetikstudio in Berlin-Mitte, das von und mit seinen Kundinnen und Kundinnen lebt. Als Alleinkämpferin bin ich, Franzi, vor allem nachdem die Krise überstanden ist, mehr denn je auf die Unterstützung meiner Kundschaft angewiesen."
helfenberlin,,Enoiteca IL Calice,"Walter-Benjamin-Platz 4, 10629 Berlin",52.50215,13.31491,Berlin,Germany,,,,https://helfen-shop.berlin/dein-unternehmen/enoiteca-il-calice-2/,https://helfen-shop.berlin/wp-content/uploads/2020/03/Enoiteca-IL-Calice_23032020.jpg,,"Italian Fine Dining, Forza e coraggio !"
helfenberlin,,Mama Shabz,"Reichenberger Str. 61a, 10999 Berlin",52.4955319,13.429587,Berlin,Germany,,,,https://helfen-shop.berlin/dein-unternehmen/mama-shabz/,https://helfen-shop.berlin/wp-content/uploads/2020/03/Hand_1.jpg,,"Mama Shabz schöpft aus einer Vielzahl von Ernährungsphilosophien aus ihrer Heimat. Frisch gezüchtete Produkte, über Generationen hinweg bewährte Kochtechniken und vor allem Rezepte und Erinnerungen, die sie von ihrer Mutter mitbekommen hat., Wir bei Mama Shabz feiern die traditionelle pakistanische Küche im wahrsten Sinne des Wortes. Jedes Gericht und jeder Löffel ist ein großzügiger Ausdruck unserer Liebe für wahren pakistanischen Küche. Von Lahore auf Ihren Tisch, endlich eine Chance, pakistanisches Essen so zu erleben, wie es gedacht war!"
helfenberlin,,Trattoria Martinello,"Reichenbergerstraße 73, 10999 Berlin",52.4943465,13.4338347,Berlin,Germany,,,,https://helfen-shop.berlin/dein-unternehmen/trattoria-martinello/,,,Trattoria Martinello braucht deine Hilfe!
helfenberlin,,POPILUXE,"Wilmersdorfer Str.107a, 10629 Berlin",52.5048807,13.3074666,Berlin,Germany,,,,https://helfen-shop.berlin/dein-unternehmen/popiluxe/,https://helfen-shop.berlin/wp-content/uploads/2020/03/Hand_1.jpg,,ACCESSOIRES FEMININS ET COLORÉS
helfenberlin,,LichtMal/Zentrum für Freunde der Schwarz-Weiss-Fotografie e.V.,"Kopenhagener Straße 14, 10437 Berlin",52.5491625,13.4089463,Berlin,Germany,,,,https://helfen-shop.berlin/dein-unternehmen/lichtmal-zentrum-fuer-freunde-der-schwarz-weiss-fotografie-e-v/,https://helfen-shop.berlin/wp-content/uploads/2020/03/Hand_1.jpg,,"Wir sind ein Verein, der die analoge Schwarz-Weiss-Fotografie pflegt und fördert. Dazu führen wir regelmäßig Fotokurse durch."
helfenberlin,,Wo man sich Zuhause fühlt,"Heinrich-Böll-Straße 2, 13156 Berlin",52.5872594,13.4023144,Berlin,Germany,,,,https://helfen-shop.berlin/dein-unternehmen/wo-man-sich-zuhause-fuehlt/,https://helfen-shop.berlin/wp-content/uploads/2020/03/d587073b-c1cc-433e-b2fc-279c95aeb5d9.png,,Familiencafe
helfenberlin,,siebenSchön- unabhängige Dr.Juchheim-Beratung,"Wilmersdorfer Straße 7, 10585 Berlin",52.5176731,13.3042608,Berlin,Germany,,,,https://helfen-shop.berlin/dein-unternehmen/siebenschoen-unabhaengige-dr-juchheim-beratung/,https://helfen-shop.berlin/wp-content/uploads/2020/03/943d44de-b2b0-49f4-b9aa-1db15cc00e01-scaled.jpg,,"Das siebenSchön ist ein kleiner, feiner Kosmetiksalon in Charlottenburg, das Professionalität, Ästhetik und Ruhe miteinander verbindet.
 Ich wünsche mir sehr, dass das auch nach der Krise lange so bleibt.
 Dafür wünsche ich mir Deine Unterstützung. Vielen Dank."
helfenberlin,,Il buco di Heidi – Caffe e Ristoro,"Schönhauser Allee 177a, 10119 Berlin",52.5313228,13.4116342,Berlin,Germany,,,,https://helfen-shop.berlin/dein-unternehmen/il-buco-di-heidi-caffe-e-ristoro/,https://helfen-shop.berlin/wp-content/uploads/2020/03/89d61eba-6798-4a1c-a056-ea2f4225aac4.jpeg,,Italienisches Cafe mit Mittagstisch
helfenberlin,,Luisa Serafin Clothing,"Henriette-Herz-Platz 4, 10178 Berlin",52.5222855,13.4028304,Berlin,Germany,,,,https://helfen-shop.berlin/dein-unternehmen/luisa-serafin-clothing/,https://helfen-shop.berlin/wp-content/uploads/2020/03/78a1922c-96a0-4aae-ad3a-925fa60ef388-scaled.jpg,,Italienische Mode und Stilberatung
helfenberlin,,Evin Pizza Pasta,"Kurfürstenstr. 101-104, 10787 Berlin",52.5045024,13.3423471,Berlin,Germany,,,,https://helfen-shop.berlin/dein-unternehmen/evin-pizza-pasta/,https://helfen-shop.berlin/wp-content/uploads/2020/03/Hand_1.jpg,,"Wir haben leider keinen Lieferservice der ums retten könnte, haben kürzlich einen Kredit gezogen und in den Laden investiert. Wir wollen nicht in die Insolvenz und daher suchen wir jede mögliche Hilfe."
helfenberlin,,Die Hütte Pizzeria,"Kopenhagener Straße 17, 10437 Berlin",52.5491863,13.4075671,Berlin,Germany,,,,https://helfen-shop.berlin/dein-unternehmen/die-huette-pizzeria/,https://helfen-shop.berlin/wp-content/uploads/2020/03/7bbf1007-12f3-4510-b89a-392a8ca22eb3.png,,Die Hütte oder auch Pizzahütte seit 2009 in der Kopenhagener Straße. Zwischen 2014 und 2018 in der Willner Brauerei.
helfenberlin,,Kohlenquelle,"Kopenhagener Straße 16, 10437 Berlin",52.5491715,13.4083151,Berlin,Germany,,,,https://helfen-shop.berlin/dein-unternehmen/kohlenquelle/,https://helfen-shop.berlin/wp-content/uploads/2020/03/aa98b3da-b18a-4ef7-b7dc-f0c18829975e.jpeg,,Die Kohlenquelle auch Koppe genannt sonnt sich seit 20 Jahren an der Ecke Sonnenburger Straße
helfenberlin,,Fotowalks Berlin,"Romy-Schneider-Str. 13, 13599 Berlin",52.54676,13.22514,Berlin,Germany,,,,https://helfen-shop.berlin/dein-unternehmen/fotowalks-berlin/,https://helfen-shop.berlin/wp-content/uploads/2020/03/a307c5da-adbb-49eb-a563-9a88f1cd582d.jpg,,Fotowalks Berlin bietet Fotokurse (Indoor und Outdoor) und Fotospaziergänge zu verschiedensten Themen in kleinen Gruppen für Einsteiger bis Fortgeschrittene sowie Einzelunterricht in und um Berlin an.
helfenberlin,,asiana village,"Wilhelmsruher Damm 231, 13435 Berlin",52.5953827,13.3352082,Berlin,Germany,,,,https://helfen-shop.berlin/dein-unternehmen/asiana-village/,https://helfen-shop.berlin/wp-content/uploads/2020/03/608c32eb-bfc3-4856-958c-aeb5482de829-scaled.jpg,,Unser geliebtes asiana village ist jetzt 1 Jahr alt geworden. Gern würden wir auch den 2 und weitere Geburtstage feiern. Helft uns dabei!
helfenberlin,,Immergrūn- Eastgate,"Marzahner Promenade 1a, 12679 Berlin",52.5436813,13.5448268,Berlin,Germany,,,,https://helfen-shop.berlin/dein-unternehmen/immergrun-eastgate/,https://helfen-shop.berlin/wp-content/uploads/2020/03/Hand_1.jpg,,"Immergrūn Deine Saft- und Smoothiebar im Eastgate pausiert nun leider um seinen Teil zur Eindämmung des Coronavirus zu leisten. Eine schwere Zeit für uns alle, natürlich auch für unsere kleine Filiale. Wir hoffen nun das die getroffenen Maßnahmen schnell Wirkung zeigen und uns eine lange Schließung erspart bleibt, um bald wieder in unserer Filiale stehen zu können um Euch die Produkte bieten zu können, die uns persönlich jetzt schon fehlen. Danke an alle die bei der Nutzung dieser Plattform ein Zeichen der Wertschätzung für ihr Lieblingsunternehmen in ihrer Nähe setzen. Ein wertvolles Instrument in diesen harten Tagen/ Wochen für jeden Unternehmer."
helfenberlin,,Lady M Wäsche DessousBademoden,"Westfälischestrasse 43, 10711 Berlin",52.4967318,13.2933117,Berlin,Germany,,,,https://helfen-shop.berlin/dein-unternehmen/lady-m-waesche-dessousbademoden/,https://helfen-shop.berlin/wp-content/uploads/2020/03/34311d6a-aeb8-40de-876b-9f0336f6b648.jpg,,Die Beratung macht den Unterschied seid fast 50 Jahren
helfenberlin,,Road Runner Bar,"Franz-Künstler-Str. 15, 10969 Berlin",52.5016637,13.3994174,Berlin,Germany,,,,https://helfen-shop.berlin/dein-unternehmen/road-runner-bar/,https://helfen-shop.berlin/wp-content/uploads/2020/03/29792850-f79e-468a-8cac-3ec0a2414e16-scaled.jpg,,"Die Bar auf Rädern. Wir sind ein Barkeeper Team die ihr fundiertes Wissen mit Kreativität, Leidenschaft, Liebe zum Detail und einem guten Schuss Spaß mixen – im perfekten Mischungsverhältnis wie bei einem Cocktail. 2017 wurde die Leidenschaft zur Berufung. Der alte Pakettransporter wurde liebevoll restauriert und zur Cocktail-Truck umgebaut – mit der Mission hochwertige Cocktails, frische Getränke und mehr an jeden Wunschort zu bringen."
helfenberlin,,Treinta Y Seis,"Falckensteinstrasse 42, 10997 Berlin",52.499435,13.4434706,Berlin,Germany,,,,https://helfen-shop.berlin/dein-unternehmen/treinta-y-seis/,,,Restaurant /Bar / Café
helfenberlin,,Heipl Berlin,"Schlesische Strasse 30, 10997 Berlin",52.49886,13.4468,Berlin,Germany,,,,https://helfen-shop.berlin/dein-unternehmen/heipl-berlin/,https://helfen-shop.berlin/wp-content/uploads/2020/03/Hand_1.jpg,,"Concept Store für ausgesuchte, einfache, nützliche und schöne Dinge des alltäglichen Bedarfs. Produkte, an die man sein Herz verschenkt und die jeden Tag und über viele Jahre Freude bereiten. Wir suchen – Du findest!"
helfenberlin,,Machete Berlin,"Neue Bahnhofstrasse 29, 10245 Berlin",52.5057,13.4694756,Berlin,Germany,,,,https://helfen-shop.berlin/dein-unternehmen/machete-berlin/,https://helfen-shop.berlin/wp-content/uploads/2020/03/Machete-Berlin_27032020.jpg,,Wir freuen uns riesig über die Möglichkeit der Gutschein für unsere Kunden.
helfenberlin,,La Lucha,"Paul-Lincke-Ufer 39-41, 10999 Berlin",52.4961292,13.4222048,Berlin,Germany,,,,https://helfen-shop.berlin/dein-unternehmen/la-lucha/,https://helfen-shop.berlin/wp-content/uploads/2020/03/La-Lucha-250320-1.jpg,,"Inspiriert von regionaler und traditioneller mexikanischer Küche, verschreibt sich La Lucha einer modernen Interpretation des authentischen Geschmacks Mexikos.
 Aus dem Spanischen übersetzt, heißt La Lucha „der Kampf“. Bekannt als leidenschaftliche und hart arbeitende Menschen, benutzen Mexikaner den Begriff La Lucha als positiven Ausdruck ihrer Antriebskraft, ihre Ziele und Träume zu verwirklichen. Wir teilen diese Energie und Leidenschaft und bemühen uns tagtäglich ein ehrliches, genussvolles und authentisches Erlebnis der mexikanischen Küche zu schaffen. La Lucha ist unser Bemühen, den echten Geschmack Mexikos nach Berlin zu bringen."
helfenberlin,,Helmuts Fahrrad Center – Marienfelde,"Großbeerenstr. 169-171, 12277 Berlin",52.4283682,13.3767081,Berlin,Germany,,,,https://helfen-shop.berlin/dein-unternehmen/helmuts-fahrrad-center-marienfelde/,https://helfen-shop.berlin/wp-content/uploads/2020/03/Helmuts-Fahrrad-Center-Marienfelde-250320.jpg,,Wir möchten das Sie das passende Fahrrad fahren….
helfenberlin,,Filmkunstbar Fitzcarraldo,"Reichenberger Str. 133, 10999 Berlin",52.4961246,13.4289877,Berlin,Germany,,,,https://helfen-shop.berlin/dein-unternehmen/filmkunstbar-fitzcarraldo/,https://helfen-shop.berlin/wp-content/uploads/2020/03/Filmkunstbar-Fitzcarraldo-240320.jpg,,Wir sind ein Mix aus Arthaus Videothek und Bar.
helfenberlin,,Ristorante Rossosiena,"Potsdamer Chaussee 15a, 14163 Berlin",52.4315326,13.2309208,Berlin,Germany,,,,https://helfen-shop.berlin/dein-unternehmen/ristorante-rossosiena/,https://helfen-shop.berlin/wp-content/uploads/2020/03/Ristorante-Rossosiena_25032020.jpg,,Per la Vita é l`amore – Für die Liebe zum Leben
helfenberlin,,Kladower Hof,"Sakrowerlandstr. 14-16, 14089 Berlin",52.4529491,13.1410476,Berlin,Germany,,,,https://helfen-shop.berlin/dein-unternehmen/kladower-hof/,https://helfen-shop.berlin/wp-content/uploads/2020/03/Getranke_2.jpg,,"Als kleines Familienunternehmen, freuen wir uns riesig über jede Hilfe. Da wir nach über 100 Jahren, das erste mal für eine ungewisse Zeit schließen müssen, hoffen wir natürlich auf eure Unterstützung.
 Wir freuen uns, hoffentlich bald wieder für euch da sein zu können.
 Euer Kladower Hof Team"
helfenberlin,,hutmanufaktur petra benz. berlin,"Nassauische Str. 11-12, 10717 Berlin",52.4916,13.32649,Berlin,Germany,,,,https://helfen-shop.berlin/dein-unternehmen/hutmanufaktur-petra-benz-berlin/,https://helfen-shop.berlin/wp-content/uploads/2020/03/hutmanufaktur-petra-benz.-berlin_24032020.jpg,,"Bleiben Sie wohl behütet! Anfertigung, Auf-, Umarbeitung und Reparaturen auch in Corona-Zeiten!"
helfenberlin,,STODIECKs Buchhandlung und Bio-Wein,"Richard-Wagner-Str. 39, 10585 Berlin",52.5155386,13.3064005,Berlin,Germany,,,,https://helfen-shop.berlin/dein-unternehmen/stodiecks-buchhandlung-und-bio-wein/,https://helfen-shop.berlin/wp-content/uploads/2020/03/STODIECKs-Buchhandlung-und-Bio-Wein-240320.jpg,,Buchladen im Kiez Charlottenburg seit 41 Jahren mit sehr vielen Kinderbüchern
helfenberlin,,Swadishta UG,"Kurfürstenstrasse 131a, 10785 Berlin",52.50185,13.35386,Berlin,Germany,,,,https://helfen-shop.berlin/dein-unternehmen/swadishta-ug/,https://helfen-shop.berlin/wp-content/uploads/2020/03/Teller_2.jpg,,Gift voucher for restaurant
helfenberlin,,Café Schwesterherz,"Kopenhagener Straße 22, 10437 Berlin",52.5490918,13.4060827,Berlin,Germany,,,,https://helfen-shop.berlin/dein-unternehmen/cafe-schwesterherz/,https://helfen-shop.berlin/wp-content/uploads/2020/03/Cafe%CC%81-Schwesterherz-240320.png,,Mein kleines Café braucht Hilfe
helfenberlin,,Gartenhaus Café,"Martin-Buber-Strasse 1, 14163 Berlin",52.4315648,13.2578242,Berlin,Germany,,,,https://helfen-shop.berlin/dein-unternehmen/gartenhaus-cafe/,https://helfen-shop.berlin/wp-content/uploads/2020/03/Gartenhaus-Cafe%CC%81-230320.jpg,,Das kleine Café gleich um die Ecke vom Teltower Damm ist eine Insel in der städtischen unruhigen See.
helfenberlin,,Buschbeck´s Restaurant,"Trendelenburgstraße 14, 14057 Berlin",52.5057355,13.2921105,Berlin,Germany,,,,https://helfen-shop.berlin/dein-unternehmen/buschbecks-restaurant/,https://helfen-shop.berlin/wp-content/uploads/2020/03/Buschbeck%C2%B4s-Restaurant-230320.jpg,,Bieten in der Krise deutsche Küche zum Mitnehmen
helfenberlin,,Bonis Fahrrad,"Hugo-Heimann-Straße 10, 12353 Berlin",52.424797,13.461202,Berlin,Germany,,,,https://helfen-shop.berlin/dein-unternehmen/bonis-fahrrad/,https://helfen-shop.berlin/wp-content/uploads/2020/03/Bonis-Fahrrad_24032020.jpg,,Fahrradladen und -werkstatt
helfenberlin,,Vineria Carvalho,"Reichenberger Str. 54, 10999 Berlin",52.49604,13.42789,Berlin,Germany,,,,https://helfen-shop.berlin/dein-unternehmen/vineria-carvalho/,https://helfen-shop.berlin/wp-content/uploads/2020/03/Getranke_1.jpg,,Spanische Bar mit Wein und Tapas zu mitnehmen
helfenberlin,,TOFUTUSSIS,"Eisenbahnstr. 42 – 43, 10997 Berlin",52.50202,13.43186,Berlin,Germany,,,,https://helfen-shop.berlin/dein-unternehmen/tofutussis/,https://helfen-shop.berlin/wp-content/uploads/2020/03/Hand_1.jpg,,Berliner Tofurei / Beste Vegane Burger!
helfenberlin,,Wasserläufer Berlin,"Müggelheimer Straße 1, 12555 Berlin",52.4440818,13.5748779,Berlin,Germany,,,,https://helfen-shop.berlin/dein-unternehmen/wasserlaeufer-berlin/,https://helfen-shop.berlin/wp-content/uploads/2020/03/606ae371-7b22-4263-9b04-2383bc65a43d.jpg,,"Wolltest du schon immer einmal über das Wasser laufen?
 Dann bist du bei uns genau richtig.
 Erfahre eine völlig neue Sportart auf dem Wasser, die zudem deine Fitness und Ausdauer trainiert.
 Geeignet für jung und alt.
 Entdecke Köpenick vom Wasser aus –
 auf den Pedal Boards von Wasserläufer Berlin."
helfenberlin,,Wilhelm die 3.,"Immanuelkirchstraße 5, 10405 Berlin",52.5324,13.42259,Berlin,Germany,,,,https://helfen-shop.berlin/dein-unternehmen/wilhelm-die-3/,https://helfen-shop.berlin/wp-content/uploads/2020/03/53aaf1a5-9e39-425f-aa00-de805037f445.jpg,,"Schmuck- und Designgalerie
 Bei Wilhelm die 3. stammen alle Produkte von kleinen Manufakturen, die Wert auf gutes Handwerk und zeitgenössisches Design legen. In wechselnden Ausstellungen werden Porzellan, Glaswaren, Wohnaccessoires und Schmuckdesign von etwa 25 Künstlern gezeigt. Das Herzstück des Ladens aber ist die Werkbank, an der Bettina Götsch ihre individuellen Schmuckstücke fertigt. Wer etwas besonderes sucht – wird hier bestimmt fündig!"
helfenberlin,,engelnest coworking,"Wilhelm-Kabus-Str. 24, 10829 Berlin",52.4818592,13.3668854,Berlin,Germany,,,,https://helfen-shop.berlin/dein-unternehmen/engelnest-coworking/,https://helfen-shop.berlin/wp-content/uploads/2020/03/Hand_1.jpg,,Coworking-Space for entrepreneurs and freelancers in Rote Insel/Südkreuz
helfenberlin,,Straßenbräu,"Neue Bahnhofstraße 30, 10245 Berlin",52.5055695,13.4693201,Berlin,Germany,,,,https://helfen-shop.berlin/dein-unternehmen/strassenbraeu/,https://helfen-shop.berlin/wp-content/uploads/2020/03/23f82a08-d600-4547-a198-5ad06a2ae6c3.jpg,,"Bar und Brauerei.
 Gegen den Durst nach der Krise!"
helfenberlin,,Spinnrad,"Wiesbadener Straße 16, 14197 Berlin",52.4717918,13.3192124,Berlin,Germany,,,,https://helfen-shop.berlin/dein-unternehmen/spinnrad/,https://helfen-shop.berlin/wp-content/uploads/2020/03/6e54adea-53ea-4f63-931f-d69ac4348e06.jpeg,,"Unterstützt die Kiezkneipe Spinnrad, damit wir auch zukünftig euer zweites Wohnzimmer sein können."
helfenberlin,,Foto-Faible,"Morgensternstrasse 29, 12207 Berlin",52.42754,13.32454,Berlin,Germany,,,,https://helfen-shop.berlin/dein-unternehmen/foto-faible/,https://helfen-shop.berlin/wp-content/uploads/2020/03/bb8c4929-11c5-45bb-8367-2709367a9a4f.jpg,,Ich hoffe auf Ihre Unterstützung.Dankeschön im Voraus
helfenberlin,,Tam Tam,"Knesebeckstraße 59-61, 10719 Berlin",52.5007826,13.3223918,Berlin,Germany,,,,https://helfen-shop.berlin/dein-unternehmen/tam-tam/,https://helfen-shop.berlin/wp-content/uploads/2020/03/5a698e50-e750-4087-8f69-e3de979a69b1.jpeg,,Seit über 38 Jahren sind wir für Euch da. Außergewöhnliches Spielzeug für Kinder von 0-6 Jahren. Bis bald.
helfenberlin,,Mission Accepted,"Tauentzienstraße 9-12, 10789 Berlin",52.5044156,13.3379755,Berlin,Germany,,,,https://helfen-shop.berlin/dein-unternehmen/mission-accepted/,https://helfen-shop.berlin/wp-content/uploads/2020/03/799bd914-5a42-4bbb-8adf-93b7c0092c04.jpg,,Escape Rooms
helfenberlin,,Trollby Kinder-Second-Hand mit Still- und Umstandsmode,"Eisenacher Strasse 78, 10823 Berlin",52.4885413,13.3495581,Berlin,Germany,,,,https://helfen-shop.berlin/dein-unternehmen/trollby-kinder-second-hand-mit-still-und-umstandsmode/,https://helfen-shop.berlin/wp-content/uploads/2020/03/9f451238-18a8-4e7a-9518-eb3558f15abe.jpg,,"Trollby ist seit 11 Jahren die Anlaufstelle für Schwangere, Eltern mit Babys und Kindern im Kietz und darüber hinaus. Wir bieten ein großes Sortiment an gebrauchten Artikeln – angefangen von der Schwangerschafts- und Babykleidung, über Kinderwagen, Autositze, Spielzeug, Bücher und Schuhe, bis hin zur Teenager-Größe 176."
helfenberlin,,Kino & Bar in der Königstadt,"Straßburger Straße 55, 10405 Berlin",52.5295301,13.4130182,Berlin,Germany,,,,https://helfen-shop.berlin/dein-unternehmen/kino-bar-in-der-koenigstadt/,https://helfen-shop.berlin/wp-content/uploads/2020/03/30f1e0a4-9213-4a73-b2ea-78c1105f39ac.png,,"Klassiker, Aktuelles, Unbekanntes. Wir zeigen was unterhält, zur Diskussion anregt, bewegt. Wir sind ein Ort, an dem die Kunst des Kinos im Mittelpunkt steht. Als Anlaufstelle für Festivals, themenspezifische Reihen und außergewöhnliche Abende bieten wir ein breit gefächertes und abwechslungsreiches Programm. Die dazu gehörige Bar offeriert eine erlesene Auswahl an Getränken, vor und nach einem Kinobesuch oder auch unabhängig davon."
helfenberlin,,Restaurant Georgios,"BAYERISCHE Straßen 26, 10707 Berlin",52.49712,13.31404,Berlin,Germany,,,,https://helfen-shop.berlin/dein-unternehmen/restaurant-georgios/,https://helfen-shop.berlin/wp-content/uploads/2020/03/00f0de8c-ccae-40f3-90f8-6f19f2d97b20.jpg,,Georgios Restaurant
helfenberlin,,Georgios Restaurant,"BAYERISCHE Straßen 26, 10707 Berlin",52.49712,13.31404,Berlin,Germany,,,,https://helfen-shop.berlin/dein-unternehmen/georgios-restaurant-2/,https://helfen-shop.berlin/wp-content/uploads/2020/03/Hand_1.jpg,,Georgios Restaurant
helfenberlin,,Greifmusic – die mobile Musikschule,"Baumschulenstraße 65a, 12437 Berlin",52.4614656,13.4816731,Berlin,Germany,,,,https://helfen-shop.berlin/dein-unternehmen/greifmusic-die-mobile-musikschule/,https://helfen-shop.berlin/wp-content/uploads/2020/03/0bf4e08b-6474-421b-9868-8904b0685750.jpg,,"Wir sind Greifmusic – die mobile Musikschule und sind in normalen Zeiten mit unserem beliebten Musikunterricht bei den Menschen zu Hause, in Schulen, Kitas und Jugendeinrichtungen. Leider können wir momentan kaum noch unterrichten (außer online), stehen zu unserer sozialen Verantwortung gegenüber unseren Lehrkräften natürlich und bekommen momentan leider kaum bis keine Anfragen. Weiterhin sind Kurse an Einrichtungen gekappt und wir haben keine Zusagen, ob wir eine Entschädigung bekommen."
helfenberlin,,Les Épicuriens,"Marheineke Markthalle, 10961 Berlin",52.48933,13.394788,Berlin,Germany,,,,https://helfen-shop.berlin/dein-unternehmen/les-epicuriens/,https://helfen-shop.berlin/wp-content/uploads/2020/03/Les-E%CC%81picuriens_27032020.jpg,,"Französische Delikatessen, Wein, Käse, Feinkost und Bistro"
helfenberlin,,Theater unterm Turm,"Düsseldorfer Straße 2, 10719 Berlin",52.4950863,13.3255178,Berlin,Germany,,,,https://helfen-shop.berlin/dein-unternehmen/theater-unterm-turm/,https://helfen-shop.berlin/wp-content/uploads/2020/03/Theater-unterm-Turm-250320.jpg,,"Seit nunmehr fast 10 Jahren bildet das Theater unterm Turm eine kleine aber feine Institution im Berliner Bezirk Charlottenburg-Wilmersdorf. Wir würden uns freuen, wenn uns dabei unterstützen, dass dies auch in Zukunft so bleiben kann."
helfenberlin,,Kaffee.Bar,"Stargarder Straße 55a, 10437 Berlin",52.5446774,13.4230552,Berlin,Germany,,,,https://helfen-shop.berlin/dein-unternehmen/kaffee-bar/,https://helfen-shop.berlin/wp-content/uploads/2020/03/Kaffee.Bar_27032020.jpeg,,Frühstücksrestaurant/Café im Prenzlauer Berg
helfenberlin,,Art Tours Berlin,"Wildenbruchstrasse 90, 12045 Berlin",52.4822819,13.4406057,Berlin,Germany,,,,https://helfen-shop.berlin/dein-unternehmen/art-tours-berlin/,https://helfen-shop.berlin/wp-content/uploads/2020/03/Art-Tours-Berlin_25032020.jpg,,Kunst Führungen nach Galerien und Künstlerateliers.
helfenberlin,,Kärrecho,"Neue Bahnhofstraße 25, 12435 Berlin",52.5068542,13.4705343,Berlin,Germany,,,,https://helfen-shop.berlin/dein-unternehmen/kaerrecho/,https://helfen-shop.berlin/wp-content/uploads/2020/03/K%C3%A4rrecho-250320.jpeg,,"Kärrecho ist ein Projekt, das wir ins Leben gerufen haben, um das venezolanische Essen in der Sphäre Berlins einzuführen."
helfenberlin,,Grünton Friseur,"Eberswalder Straße 26, 10437 Berlin",52.5412733,13.4115496,Berlin,Germany,,,,https://helfen-shop.berlin/dein-unternehmen/gruenton-friseur/,https://helfen-shop.berlin/wp-content/uploads/2020/03/Gr%C3%BCnton-Friseur-250320.jpeg,,So kannst Du Deinem Lieblingsfriseur durch die Krise helfen.
helfenberlin,,Tuk Tuk indonesisches Restaurant,"Großgörschenstrasse 2, 10827 Berlin",52.4911346,13.361704,Berlin,Germany,,,,https://helfen-shop.berlin/dein-unternehmen/tuk-tuk-indonesisches-restaurant/,https://helfen-shop.berlin/wp-content/uploads/2020/03/Besteck_2.jpg,,Kämpfen für unser Existenz mit Sozial Engagement
helfenberlin,,Bikini Berlin Mayfair Hairfashions,"Budapester Str. 38/50, 10787 Berlin",52.5055961,13.338308,Berlin,Germany,,,,https://helfen-shop.berlin/dein-unternehmen/bikini-berlin-mayfair-hairfashions/,https://helfen-shop.berlin/wp-content/uploads/2020/03/Bikini-Berlin-Mayfair-Hairfashions-240320.jpg,,Barbier/ Friseur/Echthaarverlängerung
helfenberlin,,Tanzschule Schrittvermittlung,"Grünberger Straße 44a, 10245 Berlin",52.51202,13.454517,Berlin,Germany,,,,https://helfen-shop.berlin/dein-unternehmen/tanzschule-schrittvermittlung/,https://helfen-shop.berlin/wp-content/uploads/2020/03/Tanzschule-Schrittvermittlung_230320.jpg,,Eure Tanzschule für Social Dance in Berlin Friedrichshain
helfenberlin,,Wetplate-Berlin,"Am Tempelhofer Berg 6, 10965 Berlin",52.4888764,13.3872799,Berlin,Germany,,,,https://helfen-shop.berlin/dein-unternehmen/wetplate-berlin/,https://helfen-shop.berlin/wp-content/uploads/2020/03/image0.jpeg,,"Fotografie aus reinem Silber auf Glas & Metall: Kollodium-Fotografie, Portrait, 1- und 2-Tages-Workshops, Historische Photographie, Salzpapier, Albumin, Vintage, Kollodium, Silber-Bild, Cyanotypie,"
helfenberlin,,Chuchichäschtli,"Holsteinische Str. 19, 10717 Berlin",52.4910074,13.3250591,Berlin,Germany,,,,https://helfen-shop.berlin/dein-unternehmen/chuchichaeschtli/,https://helfen-shop.berlin/wp-content/uploads/2020/03/Chuchicha%CC%88schtli_230320.jpeg,,Berlin
helfenberlin,,HEIDENPETERS,"Eisenbahnstraße 42-43, 10997 Berlin",52.50202,13.43186,Berlin,Germany,,,,https://helfen-shop.berlin/dein-unternehmen/heidenpeters/,https://helfen-shop.berlin/wp-content/uploads/2020/03/HeidenpetersNEU.jpg,,Euer KIezbier aus Xberg frisch vom Hahn in der Markthalle Neun
helfenberlin,,Landhaus Hubertus,"Invalidensiedlung 46, 13465 Berlin",52.65551,13.2840401,Berlin,Germany,,,,https://helfen-shop.berlin/dein-unternehmen/landhaus-hubertus/,https://helfen-shop.berlin/wp-content/uploads/2020/03/5f4f652e-fba8-4ca1-a4bf-a597f1d47767.jpg,,"Landhaus Hubertus – gut essen, fürstlich feiern – Eure Familiengastronomie mit viel Herz!"
helfenberlin,,Restaurant Alpenwirt,"Karl-Marx-Allee 90 a, 10243 Berlin",52.5163802,13.4411107,Berlin,Germany,,,,https://helfen-shop.berlin/dein-unternehmen/restaurant-alpenwirt/,https://helfen-shop.berlin/wp-content/uploads/2020/03/Hand_1.jpg,,Wir sind ein Restaurant mit deutsche Küche.
helfenberlin,,Weißes Röss´l,"Heinersdorferstr. 15, 12209 Berlin",52.41836,13.32432,Berlin,Germany,,,,https://helfen-shop.berlin/dein-unternehmen/weisses-roessl/,https://helfen-shop.berlin/wp-content/uploads/2020/03/56157762-c3b2-4daf-a87b-3cb8061204f6.jpg,,Berlin´s ältestes Bayerisches Wirtshaus
helfenberlin,,Ristorante a Mano,"Strausberger Platz 2, 10243 Berlin",52.5193889,13.4273657,Berlin,Germany,,,,https://helfen-shop.berlin/dein-unternehmen/ristorante-a-mano/,https://helfen-shop.berlin/wp-content/uploads/2020/03/Hand_1.jpg,,Amano has to live .
helfenberlin,,Tortenmanufaktur LAELIA,"Greifswalder Str. 50, 10405 Berlin",52.5368339,13.4344199,Berlin,Germany,,,,https://helfen-shop.berlin/dein-unternehmen/tortenmanufaktur-laelia/,https://helfen-shop.berlin/wp-content/uploads/2020/03/45f05d9a-6b35-46e5-a93d-80a3a97bec1f.jpg,,"WIr lieben Torten ! Bitte helft uns, diese Krise zu überstehen, damit wir Euch auch danach wieder den Tag versüßen können!"
helfenberlin,,Korean Food Stories,"Prenzlauer Allee 217, 10405 Berlin",52.5351337,13.4213307,Berlin,Germany,,,,https://helfen-shop.berlin/dein-unternehmen/korean-food-stories/,https://helfen-shop.berlin/wp-content/uploads/2020/03/33547520-8e2f-4eac-b796-289b273fb851.jpg,,Kleines Koreanisches Restaurant (Familen Betrieb) im Herzen von Prenzlauer Berg
helfenberlin,,JOSL Berlin,"Pestalozzistrasse 70, 10627 Berlin",52.507763,13.3040375,Berlin,Germany,,,,https://helfen-shop.berlin/dein-unternehmen/josl-berlin/,https://helfen-shop.berlin/wp-content/uploads/2020/03/59c4a290-5b10-4a57-b50e-524cf550c770.jpg,,In dieser Zeit durch Distanz zusammenwachsen – mit Zuversicht und Optimismus freuen wir uns auf die Zeit danach!
helfenberlin,,Sandunga Mezcaleria,"Boxhagener Straße 50, 10245 Berlin",52.5082634,13.4663898,Berlin,Germany,,,,https://helfen-shop.berlin/dein-unternehmen/sandunga-mezcaleria/,https://helfen-shop.berlin/wp-content/uploads/2020/03/1abdec46-d99b-4b49-bd43-871dee5179ac.jpeg,,Authentic Home made Mexican Food
helfenberlin,,TOPF & PFANNE,"Kurfürstendamm 97/98, 10709 Berlin",52.498591,13.2979796,Berlin,Germany,,,,https://helfen-shop.berlin/dein-unternehmen/topf-pfanne/,https://helfen-shop.berlin/wp-content/uploads/2020/03/01121488-e9c3-4811-a867-f4c42b8fb13f.jpg,,"Küchengeräte, Töpfe und Pfannen"
helfenberlin,,Henri Banks – Creative Gifts,"krossener strasse 36, 10245 Berlin",52.5093413,13.4649574,Berlin,Germany,,,,https://helfen-shop.berlin/dein-unternehmen/henri-banks-creative-gifts/,https://helfen-shop.berlin/wp-content/uploads/2020/03/Hand_1.jpg,,"Ich verkaufe meine waren an Läden, Museum,märktens und im atelier und auf einmal waren meine Kunden weg ?"
helfenberlin,,DRUIDE – Absinth Bar,"Schönhauser Allee 42, 10435 Berlin",52.5399452,13.4126859,Berlin,Germany,,,,https://helfen-shop.berlin/dein-unternehmen/druide-absinth-bar/,https://helfen-shop.berlin/wp-content/uploads/2020/03/0f1339ea-4a81-4404-999b-298baa2674dd.jpg,,"Im Moment geht es leider nicht, aber wir freuen uns Euch bald wiederzusehen und mit Euch anzustoßen. Toll, dass Ihr uns unterstützt. Großes Dankeschön"
helfenberlin,,Sound Bath Berlin,"Kopenhagener Str. 27, 10437 Berlin",52.54895,13.40421,Berlin,Germany,,,,https://helfen-shop.berlin/dein-unternehmen/sound-bath-berlin/,https://helfen-shop.berlin/wp-content/uploads/2020/03/f81e7c87-0601-406e-9122-6f6772c0fd44.jpeg,,"Unser 60-minütiges Sound Bath bietet nicht nur Klänge von Hess Klangschalen, Koshis aller 4 Elemente, Ocean Drum, Rainstick, Cha Cha Nüsse und Kristall-Klangschale sondern auf Wunsch auch Mini Massagen und Aromadüfte."
helfenberlin,,Sense Healing,"Kopenhagener Str. 27, 10437 Berlin",52.54895,13.40421,Berlin,Germany,,,,https://helfen-shop.berlin/dein-unternehmen/sense-healing/,https://helfen-shop.berlin/wp-content/uploads/2020/03/1a1368a2-22ab-4500-a342-3f3570014b4b.jpeg,,"Ich biete dir verschiedene ganzheitliche Massagen und Klang-Erlebnisse an, die dir dabei helfen, dich zu entspannen und zu erden."
helfenberlin,,Das Hotel ( Hotel Bar ),"Mariannenstrasse 26A, 10999 Berlin",52.4966236,13.4204083,Berlin,Germany,,,,https://helfen-shop.berlin/dein-unternehmen/das-hotel-hotel-bar/,https://helfen-shop.berlin/wp-content/uploads/2020/03/cee220fc-d35f-4e5b-98d9-7b65b5780b19.jpg,,Wir schaffen die Überbrückung der Lohnfortzahlung nicht aus eigenen Rücklagen zu stämmen.. Wi wollen auch nach der Kriese noch weiterexistieren..
helfenberlin,,MaGoKeramik,"Scharnweberstraße 28, 10247 Berlin",52.513177,13.4637606,Berlin,Germany,,,,https://helfen-shop.berlin/dein-unternehmen/magokeramik/,https://helfen-shop.berlin/wp-content/uploads/2020/03/c79ab2b3-2c21-40b6-b062-5c61a16b56e0-scaled.jpg,,"Anmutige und schöne Keramik, altes Handwerk neu belebt und aus eigener Produktion. Bei uns findet zauberhafte Tassen, elegante Teekannen, entzückende Döschen und schöne Schalen."
helfenberlin,,Restaurant Heidelbeere,"Heidelberger Platz 1, 14197 Berlin",52.4787722,13.3103751,Berlin,Germany,,,,https://helfen-shop.berlin/dein-unternehmen/restaurant-heidelbeere/,https://helfen-shop.berlin/wp-content/uploads/2020/03/Hand_1.jpg,,Das Heidelbeer-Team freut sich auf ein Wiedersehen.
helfenberlin,,Jugend im Museum e.V. – Werkstatt Hortensien,"Hortensienstraße 29A, 12203 Berlin",52.44815,13.30645,Berlin,Germany,,,,https://helfen-shop.berlin/dein-unternehmen/jugend-im-museum-e-v-werkstatt-hortensien/,https://helfen-shop.berlin/wp-content/uploads/2020/03/dc2c8c7b-bb1b-41a5-ad14-140362e960eb-scaled.jpg,,"In unserer großen JiM-Werkstatt Hortensien mit einer Mal-, Holz- und Keramikwerkstatt sowie einem Fotolabor finden künstlerisch-kreative Kurse insbesondere für Kinder ab 5 Jahren statt. Das Experiment mit Materialien und die kreative Erfahrung stehen bei unserer Vermittlung im Vordergrund – inspiriert von den Berliner Museen."
helfenberlin,,Berlin Helicopter,"Flughafen Schönefeld, 12529 Berlin",52.3904494,13.5166625,Berlin,Germany,,,,https://helfen-shop.berlin/dein-unternehmen/berlin-helicopter/,https://helfen-shop.berlin/wp-content/uploads/2020/03/Hand_1.jpg,,"Nur wir fliegen direkt über Berlin. Exklusive Flugerlaubnis. Brandenburger Tor, Reichstag, Fernsehturm, Checkpoint Charlie, Ku’Damm und viel mehr! Hochmoderner Helicopter."
helfenberlin,,Verdini,"Westfälische Str. 42, 10711 Berlin",52.4967,13.29346,Berlin,Germany,,,,https://helfen-shop.berlin/dein-unternehmen/verdini/,https://helfen-shop.berlin/wp-content/uploads/2020/03/86129b32-884c-464d-8f46-7a442e80e98b.jpg,,Verdini Fashion – Mode in der Westfälischen Str.
helfenberlin,,Friseur Kopfkultur,"Eisenacherstrasse 84, 10781 Berlin",52.4899029,13.3492726,Berlin,Germany,,,,https://helfen-shop.berlin/dein-unternehmen/friseur-kopfkultur/,https://helfen-shop.berlin/wp-content/uploads/2020/03/1bd723f6-1e3c-43f6-975d-c0a1f517b91a-scaled.jpg,,Hilfe in der Coronakrise
helfenberlin,,Brauerei “Flessa Bräu”,"Petersburger Str. 39, 10249 Berlin",52.5229192,13.4506198,Berlin,Germany,,,,https://helfen-shop.berlin/dein-unternehmen/brauerei-flessa-braeu/,https://helfen-shop.berlin/wp-content/uploads/2020/03/ccdae157-fcc9-408e-bb8e-31e755178c56-scaled.jpg,,"Biete Gutscheine für unsere Braukurse und Lieferservice gratis von unseren Bierspezialitäten ab 1 Kiste in Friedrichshain, Kreuzberg. Prenzlberg und Mitte."
helfenberlin,,KLANGMASSAGE BERLIN,"Neuchateller Str. 10, 12203 Berlin",52.4482845,13.3094921,Berlin,Germany,,,,https://helfen-shop.berlin/dein-unternehmen/klangmassage-berlin/,https://helfen-shop.berlin/wp-content/uploads/2020/03/c115fa76-7af9-4b53-adf4-3cdd7dba6524.jpg,,"Als Klang-Masseurin erzeuge ich mit Klangschalen, die auf deinen bekleideten Körper aufgesetzt und sanft angeschlagen werden, Klänge und Schwingungen, die dich in einen Zustand tiefer Entspannung bringen und dich zugleich mit neuer Energie durchströmen., Gönn dir oder deinen Liebsten nach den Corona-Turbulenzen eine Auszeit und Raum zum Auftanken! Eine Klang-Massage dauert eine Stunde und kostet für Helfen.Berlin-Kund:innen 25 € (statt regulär 30 €). Weitere Infos findest du auf www.klangmassage-berlin.de"
helfenberlin,,Evelin Brandt Berlin – Friedrichshain,"Frankfurter Allee 89, 10247 Berlin",52.51435,13.47119,Berlin,Germany,,,,https://helfen-shop.berlin/dein-unternehmen/evelin-brandt-berlin-friedrichshain/,https://helfen-shop.berlin/wp-content/uploads/2020/03/Hand_1.jpg,,"Der Bezirk Friedrichshain lädt zum Erkunden ein, egal ob am Tag oder in der Nacht.
 Neben unzähligen Bars, Kneipen und Discotheken gibt es eine bunte Mischung aus Einzelhandelsgeschäften, Dienstleistungs- und Handwerksbetrieben.
 An der Frankfurter Allee, Ecke Waldeyer Straße, befindet sich eines der Berliner EVELIN BRANDT BERLIN Geschäften."
helfenberlin,,Evelin Brandt Berlin – Mitte,"Friedrichstraße 153A, 10117 Berlin",52.5178184,13.3885742,Berlin,Germany,,,,https://helfen-shop.berlin/dein-unternehmen/evelin-brandt-berlin-mitte/,https://helfen-shop.berlin/wp-content/uploads/2020/03/Hand_1.jpg,,"In Berlin-Mitte gibt es viel zu sehen und zu erleben. Hotels, Sehenswürdigkeiten und Museen sind in Hülle und Fülle vertreten.
 Alter DDR-Flair und westliche Modernität erzeugen das unverkennbare Berliner Großstadtgefühl.
 Hier pulsiert das Leben und die Stadt zeigt ihr Gesicht. EVELIN BRANDT Berlin befindet sich in der Friedrichstraße, eine der meist besuchten Straßen Berlins.
 Verweilen Sie bei uns und tauchen Sie ein in die Modewelt von EVELIN BRANDT Berlin."
helfenberlin,,Café Insonne,"Windscheidstrasse 22, 10627 Berlin",52.5056877,13.300417,Berlin,Germany,,,,https://helfen-shop.berlin/dein-unternehmen/cafe-insonne/,https://helfen-shop.berlin/wp-content/uploads/2020/03/de849815-86bd-4e04-92a6-c66f105f811e.jpg,,Kleines gemütliches italienisches Café
helfenberlin,,TZOM Eritrean food,"Dieffenbachstraße 69, 10967 Berlin",52.4937983,13.4125152,Berlin,Germany,,,,https://helfen-shop.berlin/dein-unternehmen/tzom-eritrean-food/,https://helfen-shop.berlin/wp-content/uploads/2020/03/Hand_1.jpg,,"Wir sind das erste eritreische Restaurant in Berlin.
 Die eritreische und äthiopische Küche und Kultur hat eine lange Geschichte und Tradition und reicht zurück bis zum
 Anbeginn der Zeit"
helfenberlin,,PRESENT & PAPER,"Schliemannstraße 25a, 10437 Berlin",52.5449881,13.4207729,Berlin,Germany,,,,https://helfen-shop.berlin/dein-unternehmen/present-paper/,https://helfen-shop.berlin/wp-content/uploads/2020/03/417ccc25-1ed9-414e-bfcd-f4edc2fed40a.jpeg,,Concept-Store für ausgewählte Papierwaren & Geschenke
helfenberlin,,Sicula Bar,"Scharnweberstraße 46, 10247 Berlin",52.512609,13.4664522,Berlin,Germany,,,,https://helfen-shop.berlin/dein-unternehmen/sicula-bar/,https://helfen-shop.berlin/wp-content/uploads/2020/03/10e392ba-db52-4ef6-aa61-dcef7314baf1.jpeg,,Italien Coffee-Food-Wine
helfenberlin,,"Artigiani, das natürliche Eis","Unter den Eichen 94b, 12205 Berlin",52.44503,13.29294,Berlin,Germany,,,,https://helfen-shop.berlin/dein-unternehmen/artigiani-das-natuerliche-eis/,https://helfen-shop.berlin/wp-content/uploads/2020/03/Hand_1.jpg,,Eisdiele
helfenberlin,,Sveda,"Schwedter Strasse 79, 10437 Berlin",52.547708,13.4011664,Berlin,Germany,,,,https://helfen-shop.berlin/dein-unternehmen/sveda/,https://helfen-shop.berlin/wp-content/uploads/2020/03/677b0140-7720-467a-b9ce-e802a5aaaccb-scaled.jpg,,Kiez-Restaurant mit liebevoll zubereiteten Getränken und hausgemachten Speisen
helfenberlin,,KiezEis,"Winterfeldtstraße 46, 10781 Berlin",52.4971623,13.3533415,Berlin,Germany,,,,https://helfen-shop.berlin/dein-unternehmen/kiezeis/,https://helfen-shop.berlin/wp-content/uploads/2020/03/KiezEis-250320-rotated.jpg,,Casual fine ice cream – produziert im Kiez für den Kiez
helfenberlin,,Hair Art Gallery,"Stargarder Straße 54, 10437 Berlin",52.544464,13.4234341,Berlin,Germany,,,,https://helfen-shop.berlin/dein-unternehmen/hair-art-gallery/,https://helfen-shop.berlin/wp-content/uploads/2020/03/Hair-Art-Gallery-250320.jpg,,Wir sagen Danke!
helfenberlin,,131 BAR,"Chausseestrasse 131a, 10115 Berlin",52.52732,13.38607,Berlin,Germany,,,,https://helfen-shop.berlin/dein-unternehmen/131-bar/,https://helfen-shop.berlin/wp-content/uploads/2020/03/131-BAR-250320.jpg,,
helfenberlin,,Kletterwald Wuhlheide,"An der Wuhlheide 199, 12459 Berlin",52.4581068,13.5490129,Berlin,Germany,,,,https://helfen-shop.berlin/dein-unternehmen/kletterwald-wuhlheide/,https://helfen-shop.berlin/wp-content/uploads/2020/03/Kletterwald-Wuhlheide-240320.jpeg,,Klettern im Kletterwald
helfenberlin,,Henrys,"Schöneberger Str. 11, 12163 Berlin",52.464202,13.3308836,Berlin,Germany,,,,https://helfen-shop.berlin/dein-unternehmen/henrys/,https://helfen-shop.berlin/wp-content/uploads/2020/03/Henrys_25032020.jpg,,Gourmeteis aus besten Zutaten vor Ort hergestellt
helfenberlin,,SYLD STORE BERLIN,"Frankfurter Allee 32, 10247 Berlin",52.5149065,13.4609818,Berlin,Germany,,,,https://helfen-shop.berlin/dein-unternehmen/syld-store-berlin/,https://helfen-shop.berlin/wp-content/uploads/2020/03/SYLD-STORE-BERLIN-240320.jpg,,Unsere Mission: Lokale Designer und Künstlern fördern sowie Raum und Aufmerksamkeit für außergewöhnliche Arbeiten schaffen.
helfenberlin,,kinderevents berlin,"Scharnweberstraße 49, 10247 Berlin",52.5124969,13.4677165,Berlin,Germany,,,,https://helfen-shop.berlin/dein-unternehmen/kinderevents-berlin/,https://helfen-shop.berlin/wp-content/uploads/2020/03/kinderevents-berlin-240320.jpg,,Jetzt Gutscheine kaufen. Der Spaß kommt zurück!!! Versprochen. Vielen Dank!
helfenberlin,,Das Rote Kleid,"Oderberger Straße 18, 10435 Berlin",52.53954,13.40795,Berlin,Germany,,,,https://helfen-shop.berlin/dein-unternehmen/das-rote-kleid/,https://helfen-shop.berlin/wp-content/uploads/2020/03/Das-Rote-Kleid-240320.jpg,,"Wir machen Lieblings-Kleider, denn wir wollen dass Sie toll aussehen…!"
helfenberlin,,"Korbinian Ludwig Heß, Maßschuhe","Hohenzollerndamm 201, 10717 Berlin",52.4938575,13.3260947,Berlin,Germany,,,,https://helfen-shop.berlin/dein-unternehmen/korbinian-ludwig-hess-massschuhe/,https://helfen-shop.berlin/wp-content/uploads/2020/03/Korbinian-Ludwig-He%C3%9F-Ma%C3%9Fschuhe-240320-1.jpeg,,"Maßschuhe, gefertigt in ca. 100 Stunden reiner Handarbeit. Jeder einzelne Arbeitsschritt passiert in unserer Wilmersdorfer Werkstatt."
helfenberlin,,Rita in Palma,"Kienitzer Straße 101, 12049 Berlin",52.4757759,13.4253665,Berlin,Germany,,,,https://helfen-shop.berlin/dein-unternehmen/rita-in-palma/,https://helfen-shop.berlin/wp-content/uploads/2020/03/Rita-in-Palma-240320-scaled.jpg,,Handcrafted accessories with a charitable twist
helfenberlin,,TURNHALLE,"Reinhardtstraße. 27a, 10117 Berlin",52.5230214,13.3828938,Berlin,Germany,,,,https://helfen-shop.berlin/dein-unternehmen/turnhalle/,https://helfen-shop.berlin/wp-content/uploads/2020/03/Hand_1.jpg,,Vibrationstraining • Rollenmassage • Vacutraining
helfenberlin,,Die Schöne Party,"Schönhauser Allee 36, 10435 Berlin",52.5383047,13.4127573,Berlin,Germany,,,,https://helfen-shop.berlin/dein-unternehmen/die-schoene-party/,https://helfen-shop.berlin/wp-content/uploads/2020/03/Die-Scho%CC%88ne-Party-240320-1.jpeg,,"Die Schöne Party – nur für Erwachsene, Tanzen & Kultur an jedem 1. & 3. Samstag des Monats im Frannz Club."
helfenberlin,,Stef Fauser Design,"Stargarder Straße 55, 10437 Berlin",52.5445712,13.4230687,Berlin,Germany,,,,https://helfen-shop.berlin/dein-unternehmen/stef-fauser-design/,https://helfen-shop.berlin/wp-content/uploads/2020/03/Stef-Fauser-Design-240320.jpg,,"Modeaccessoires und Möbel aus alten Fahrradschläuchen? Eine ziemlich abgefahrene Idee, mit der die Upcyclingspezialisten von Stef Fauser seit 2008 erfolgreich sind. Seither entstehen im Atelier unseres Berliner Labels Taschen, Portemonnaies, Etuis, Notizbücher, Objekte, Wand- und Sitzelemente aus recycelten und neuen Materialien. Die Entwürfe sind nachhaltig, klar strukturiert und zeitlos. Aus alt wird neu, aus industrieller Massenware ein Unikat. Die Auswahl robuster und pflegeleichter Materialien ist konsequent, auch, weil das Produkt am Ende an seiner Funktionalität gemessen wird."
helfenberlin,,Migi Würsch,"Boxhagenerstrasse 14, 10245 Berlin",52.5137398,13.4546068,Berlin,Germany,,,,https://helfen-shop.berlin/dein-unternehmen/migi-wuersch-2/,https://helfen-shop.berlin/wp-content/uploads/2020/03/Musik_1.jpg,,Rock and Roll Bar
helfenberlin,,Espresso-Ambulanz,"Oranienburger Str.51, 10117 Berlin",52.5260479,13.3879598,Berlin,Germany,,,,https://helfen-shop.berlin/dein-unternehmen/espresso-ambulanz/,https://helfen-shop.berlin/wp-content/uploads/2020/03/Espresso-Ambulanz-240320.png,,real coffee for real people
helfenberlin,,Amitie restaurant,"Potsdamer Straße 151, 10783 Berlin",52.4955398,13.3615426,Berlin,Germany,,,,https://helfen-shop.berlin/dein-unternehmen/amitie-restaurant/,https://helfen-shop.berlin/wp-content/uploads/2020/03/Amitie-restaurant-240320-min-scaled.jpg,,"Marokkanische Küche, lecker, authentisch und günstig"
helfenberlin,,Heimathafen Neukölln,"Karl-Marx-Straße 141, 12167 Berlin",52.47696,13.4393647,Berlin,Germany,,,,https://helfen-shop.berlin/dein-unternehmen/heimathafen-neukoelln/,https://helfen-shop.berlin/wp-content/uploads/2020/03/Heimathafen-Neuko%CC%88lln-240320-1.jpeg,,"Der Heimathafen Neukölln bietet ein vielfältiges Angebot aus Theater, Lesungen, Slams, Showformaten und Konzerten."
helfenberlin,,Elbfeeberlin – Beschwingtes Bekleidungsdesign,"Rotkäppchenstraße 36, 12555 Berlin",52.46656,13.58706,Berlin,Germany,,,,https://helfen-shop.berlin/dein-unternehmen/elbfeeberlin-beschwingtes-bekleidungsdesign/,https://helfen-shop.berlin/wp-content/uploads/2020/03/Elbfeeberlin-Beschwingtes-Bekleidungsdesign-240320.jpg,,Atelier für nachhaltig produzierte Maßanfertigungen und kleine Kollektionen.
helfenberlin,,Coffee For Coffee,"Frankfurter Allee 70, 10247 Berlin",52.5142007,13.4671552,Berlin,Germany,,,,https://helfen-shop.berlin/dein-unternehmen/coffee-for-coffee/,https://helfen-shop.berlin/wp-content/uploads/2020/03/Kaffee_2.jpg,,"Wir anbitten hausgemachten Kuchen und ebenso frisch zubereitete Sandwiches und Bagels für TO Go. Wir verwenden nur frische Produkte, weil uns eure Gesundheit am Herzen liegt. Bananenbrot geben sich alle Mühe auch den ausgefallen Geschmack zu treffen. Auch Kaffeebohnen sind bereit zu kaufen und zu Hause geniessen.
 Wir bedanken uns herzlich für Euren Support!"
helfenberlin,,"Salon Super Cut , Beate Lamprecht","Gotzkowskystrasse 18, 10555 Berlin",52.5240775,13.3296494,Berlin,Germany,,,,https://helfen-shop.berlin/dein-unternehmen/salon-super-cut-beate-lamprecht/,https://helfen-shop.berlin/wp-content/uploads/2020/03/Hand_1.jpg,,Wir müssen alle zusammenhalten
helfenberlin,,Salami Social Club,"Frankfurter Allee 43, 10247 Berlin",52.5150934,13.4633394,Berlin,Germany,,,,https://helfen-shop.berlin/dein-unternehmen/salami-social-club/,https://helfen-shop.berlin/wp-content/uploads/2020/03/Salami-Social-Club-240320.jpeg,,Solidarität ist die Zärtlichkeit der Völker
helfenberlin,,Stadtbad Oderberger,"Oderberger Straße 57, 10435 Berlin",52.5377364,13.410289,Berlin,Germany,,,,https://helfen-shop.berlin/dein-unternehmen/stadtbad-oderberger/,https://helfen-shop.berlin/wp-content/uploads/2020/03/Restaurant-Oderberger-2403201-scaled.jpg,,Seit 2016 steht das historische Stadtbad mit der kathedralenartigen Schwimmhalle nach aufwändiger Sanierung der Öffentlichkeit wieder als Bad & Sauna zur Verfügung.
helfenberlin,,YUNA,"Oranienburger Str.22, 10999 Berlin",52.52435,13.39617,Berlin,Germany,,,,https://helfen-shop.berlin/dein-unternehmen/yuna/,https://helfen-shop.berlin/wp-content/uploads/2020/03/YUNA-230320.jpeg,,Coffeehouse & Cocktailbar
helfenberlin,,Sunnymoon Hair e. K.,"Schildhornstrasse 12, 12163 Berlin",52.4633584,13.3200898,Berlin,Germany,,,,https://helfen-shop.berlin/dein-unternehmen/sunnymoon-hair-e-k/,https://helfen-shop.berlin/wp-content/uploads/2020/03/Sunnymoon-Hair-e.-K.-230320.jpg,,"Wir sind ein auf Zweithaar spezialisierter und präqualifizierter Salon der seit über 15 Jahre besteht. Wir wünschen uns sehr, das wir unsere grosse Leidenschaft – die Arbeit mit unseren Kunden und Haaren bzw. Haarersatz, nach der Krise ausführen können um allen weiterhin ein schönes Wohl- und Lebensgefühl zu geben!"
helfenberlin,,Yummy,"Oranienburger str 84, 10178 Berlin",52.5235284,13.3993791,Berlin,Germany,,,,https://helfen-shop.berlin/dein-unternehmen/yummy/,https://helfen-shop.berlin/wp-content/uploads/2020/03/Suppe_1.jpg,,Tofu curry.
helfenberlin,,Wertvoll,"Marienburgerstr. 39, 10405 Berlin",52.53478,13.425005,Berlin,Germany,,,,https://helfen-shop.berlin/dein-unternehmen/wertvoll/,https://helfen-shop.berlin/wp-content/uploads/2020/03/Wertvoll-240320.jpg,,Berlins Fairfashion Store braucht Eure Hilfe!!
helfenberlin,,Trattoria Gusto,"Bregenzer Strasse 1, 10707 Berlin",52.497129,13.313013,Berlin,Germany,,,,https://helfen-shop.berlin/dein-unternehmen/trattoria-gusto/,https://helfen-shop.berlin/wp-content/uploads/2020/03/Hand_1.jpg,,"Vini & Specialità Italiane, italienische Gaststätte, Pizzeria"
helfenberlin,,Coffee Room Berlin,"Saarbrücker Str. 30, 10405 Berlin",52.5298104,13.41524,Berlin,Germany,,,,https://helfen-shop.berlin/dein-unternehmen/coffee-room-berlin/,https://helfen-shop.berlin/wp-content/uploads/2020/03/c0053762-e077-4b83-91f3-c575489d7391.jpg,,Bitte unterstützt uns !
helfenberlin,,LUA Indochina und Sushi Restaurant,"Ludolfinger Platz 1, 13465 Berlin",52.6325304,13.2889506,Berlin,Germany,,,,https://helfen-shop.berlin/dein-unternehmen/lua-indochina-und-sushi-restaurant/,https://helfen-shop.berlin/wp-content/uploads/2020/03/6d08c3d4-39bb-4e67-b5c2-bec01ad5aa8e.jpg,,Wir halten durch und sagen Danke!
helfenberlin,,Thörner fürs Büro GmbH,"Salzburger Straße 9, 10825 Berlin",52.4872705,13.3422124,Berlin,Germany,,,,https://helfen-shop.berlin/dein-unternehmen/thoerner-fuers-buero-gmbh/,https://helfen-shop.berlin/wp-content/uploads/2020/03/c3ed4668-492b-454e-82e7-300d7b1a6c4b.png,,"Schon seit 1949 sind wir für Sie da, wenn es um Schul- und Bürobedarf geht. Seither ist es Ziel unseres Familienunternehmens, stets das Außergewöhnliche zu bieten und ein angenehmes Einkaufsambiente zu schaffen."
helfenberlin,,Krokodil,"Gartenstrasse 46-48, 12557 Berlin",52.4407664,13.5760064,Berlin,Germany,,,,https://helfen-shop.berlin/dein-unternehmen/krokodil/,https://helfen-shop.berlin/wp-content/uploads/2020/03/c4b900d9-41e5-45a8-bd52-5033b50d2616.jpg,,Unser kleines Paradies
helfenberlin,,Monterey Bar,"Danziger Strasse 61, 10435 Berlin",52.5397205,13.422539,Berlin,Germany,,,,https://helfen-shop.berlin/dein-unternehmen/monterey-bar/,https://helfen-shop.berlin/wp-content/uploads/2020/03/Hand_1.jpg,,"Music bar with 100´s of beers, spirits & alcohol free drinks."
helfenberlin,,Telegraph Bar,"Winterfeldtstraße 1, 10781 Berlin",52.4957158,13.36076,Berlin,Germany,,,,https://helfen-shop.berlin/dein-unternehmen/telegraph-bar/,https://helfen-shop.berlin/wp-content/uploads/2020/03/13095ab3-0229-459a-a2cb-ad7223e24291.jpeg,,"Kleine Club-Bar, wo viele private Events gefeiert werden, von dem eigentlich zwei Familien leben"
helfenberlin,,Deutsch-Jüdisches Theater/Förderverein für deutsch-jüdische Theatervorstellungen e.V.,"Grainauer Straße 20, 10777 Berlin",52.49555,13.33425,Berlin,Germany,,,,https://helfen-shop.berlin/dein-unternehmen/deutsch-juedisches-theater-foerderverein-fuer-deutsch-juedische-theatervorstellungen-e-v/,https://helfen-shop.berlin/wp-content/uploads/2020/03/98f97f97-2dc8-4fdf-85cb-333b52bda67e.jpg,,"Das DJT ist das einzige deutsch-jüdische Repertoiretheater bundesweit, beschäftigt ein internationales Team und ist durch die Corona-Krise in seiner Existenz bedroht, da es nicht institutionell subventioniert wird, sondern wesentlich auf sein Publikum angewiesen ist. Anstehende Projektförderungen von Seiten des Landes Berlin werden aktuell nicht ausgezahlt bzw. wurde deren Bearbeitung ausgesetzt. Die neuen Schirme sehen keine Hilfen für Institutionen wie unsere vor."
helfenberlin,,Monika Uecker Friseur,"Düsseldorfer Str. 2, 10719 Berlin",52.4950863,13.3255178,Berlin,Germany,,,,https://helfen-shop.berlin/dein-unternehmen/monika-uecker-friseur/,https://helfen-shop.berlin/wp-content/uploads/2020/03/14093523-e8e2-4a57-87c8-3af3748cfb35.jpg,,"Friseur Monika Uecker, ein Meisterbetrieb in der 4. Generation, bietet neueste Trends rund ums Haar: Aktuelle Haarschneide-, Farb- und Strähnchentechniken gehören genauso dazu, wie Hochsteck- und Brautfrisuren, sowie passendes Make-up."
helfenberlin,,BRÄUGIER Craftbier,"Stubbenkammerstr. 6, 10437 Berlin",52.5422173,13.4239165,Berlin,Germany,,,,https://helfen-shop.berlin/dein-unternehmen/braeugier-craftbier/,https://helfen-shop.berlin/wp-content/uploads/2020/03/a9477fa6-f314-4b70-9313-6647523aa28d.jpg,,Craft Microbrewery and Taproom. Fresh beer brewed onsite.
helfenberlin,,Kosmetik & Podologiepraxis Elke Ostermaier,"Rheinsteinstrasse 9, 10318 Berlin",52.48312,13.52725,Berlin,Germany,,,,https://helfen-shop.berlin/dein-unternehmen/kosmetik-podologiepraxis-elke-ostermaier/,https://helfen-shop.berlin/wp-content/uploads/2020/03/Hand_1.jpg,,Medizinische Fußpflege Podologie und Kosmetische Behandlungen
helfenberlin,,Pony & Clyde Friseure,"Barbarossastraße 5a, 10781 Berlin",52.4921052,13.3524531,Berlin,Germany,,,,https://helfen-shop.berlin/dein-unternehmen/pony-clyde-friseure/,https://helfen-shop.berlin/wp-content/uploads/2020/03/1e9e7e5d-35c5-46ab-9e64-14b4b7628b63.jpg,,Herzlichen Dank für Eure Unterstützung!
helfenberlin,,Casa Nostra,"Schöneberger Str. 3, 12163 Berlin",52.4644027,13.3294091,Berlin,Germany,,,,https://helfen-shop.berlin/dein-unternehmen/casa-nostra/,https://helfen-shop.berlin/wp-content/uploads/2020/03/Hand_1.jpg,,Restaurant
helfenberlin,,Kuback,"Nürnbergerstraße 17, 10789 Berlin",52.5024431,13.3377921,Berlin,Germany,,,,https://helfen-shop.berlin/dein-unternehmen/kuback/,https://helfen-shop.berlin/wp-content/uploads/2020/03/Hand_1.jpg,,"Backwaren, Kaffee, Frühstück"
helfenberlin,,Restaurant Karolinenhof,"Rohrwallallee 87-99, 12527 Berlin",52.38748,13.64042,Berlin,Germany,,,,https://helfen-shop.berlin/dein-unternehmen/restaurant-karolinenhof/,https://helfen-shop.berlin/wp-content/uploads/2020/03/b230f84f-a161-4c7d-bc29-6a1ecc74a9c4.png,,Feiern & Geniessen am See im Restaurant Karolinenhof!
helfenberlin,,Alimentari Enoteca Caffè Antipasteria Tavola calda Vino Toscano,"Grunewaldstrasse 45, 10825 Berlin",52.4888779,13.3413967,Berlin,Germany,,,,https://helfen-shop.berlin/dein-unternehmen/alimentari-enoteca-caffe-antipasteria-tavola-calda-vino-toscano/,https://helfen-shop.berlin/wp-content/uploads/2020/03/fd556502-f8fb-42e7-a118-8736a32f72de.jpeg,,"Bei uns gibt es Italienische Lebensmittel, Frischwaren, Antipasti, warmen Mittagstisch, Wein, Café, und vieles mehr"
helfenberlin,,Mirami-Restaurant,"Stresemannstraße 48, 10963 Berlin",52.5017767,13.3862946,Berlin,Germany,,,,https://helfen-shop.berlin/dein-unternehmen/mirami-restaurant/,https://helfen-shop.berlin/wp-content/uploads/2020/03/96fb5434-7434-43bc-b0bc-a9f46c68c448.png,,Ich bin Geschäftsführerin
helfenberlin,,Zum Schwalbenschwanz,"Margaretenstraße 22, 10317 Berlin",52.507648,13.4991047,Berlin,Germany,,,,https://helfen-shop.berlin/dein-unternehmen/zum-schwalbenschwanz/,https://helfen-shop.berlin/wp-content/uploads/2020/03/015018db-b537-4eac-844b-1bc1204f52dd.jpg,,Junge Lichtenberger Kiez- und Kulturbar “Zum Schwalbenschwanz” bittet um Unterstützung um die Corona-Krise überstehen zu können!
helfenberlin,,La Malga,"Hindenburgdamm 96 B, 12203 Berlin",52.44005,13.3158,Berlin,Germany,,,,https://helfen-shop.berlin/dein-unternehmen/la-malga/,https://helfen-shop.berlin/wp-content/uploads/2020/03/Hand_1.jpg,,"Seit 1982 der Lieblingitaliener in Berlin Lichterfelde.Chef Mimmo & Mamma Ottavia, Söhne Francesco, Adriano & Alessandro benötigen Eure Unterstützung!"
helfenberlin,,Gundara,"Schlesische Str. 25, 10997 Berlin",52.4976769,13.4477197,Berlin,Germany,,,,https://helfen-shop.berlin/dein-unternehmen/gundara/,https://helfen-shop.berlin/wp-content/uploads/2020/03/Hand_1.jpg,,Fair und schön
helfenberlin,,BESTE Bar,"Willdenowstraße 12a, 13353 Berlin",52.5439379,13.360636,Berlin,Germany,,,,https://helfen-shop.berlin/dein-unternehmen/beste-bar/,https://helfen-shop.berlin/wp-content/uploads/2020/03/0666f417-090c-4e30-80e2-49cb0cfa3abb.png,,"Liebe Gäste,"
helfenberlin,,HAIR MÜLLER,"Invalidenstraße 153, 10115 Berlin",52.5322498,13.3958109,Berlin,Germany,,,,https://helfen-shop.berlin/dein-unternehmen/hair-mueller/,https://helfen-shop.berlin/wp-content/uploads/2020/03/07693eae-877f-4b3a-9791-a661d1eb2ee1-scaled.jpeg,,Wir sind ein Friseurunternehmen im Herzen der Stadt.
helfenberlin,,Café Nullpunkt,"Friedrichstraße 23B, 10969 Berlin",52.5033743,13.3923023,Berlin,Germany,,,,https://helfen-shop.berlin/dein-unternehmen/cafe-nullpunkt/,https://helfen-shop.berlin/wp-content/uploads/2020/03/dbd2c553-6918-496f-923a-e5278903cb33.jpg,,"Vegetarisch, veganes Café mit vielen glutenfreien Optionen. Leckeres Mittagessen! Natürlich gut für alle. Biologische Zutaten und liebevoller Familienbetrieb."
helfenberlin,,Hani Beauty – Friedrichshain,"Tamara-Danz-Str. 11, 10243 Berlin",52.5060818,13.4465683,Berlin,Germany,,,,https://helfen-shop.berlin/dein-unternehmen/hani-beauty-friedrichshain/,https://helfen-shop.berlin/wp-content/uploads/2020/03/a3c29c07-40e4-475d-9075-90d52bf53e35.jpg,,Thank You! From Hani with Love!
helfenberlin,,Bahadur – Tandoori Grill & Currys,"Sigmaringer Str. 36, 10713 Berlin",52.487921,13.319232,Berlin,Germany,,,,https://helfen-shop.berlin/dein-unternehmen/bahadur-tandoori-grill-currys/,https://helfen-shop.berlin/wp-content/uploads/2020/03/6686f3d2-74f3-4129-a226-31bf1da630f0.jpg,,Good Indian Food in Berlin
helfenberlin,,Hut Styler,"Spandauer Straße 27, 10178 Berlin",52.5172679,13.4080212,Berlin,Germany,,,,https://helfen-shop.berlin/dein-unternehmen/hut-styler/,https://helfen-shop.berlin/wp-content/uploads/2020/03/322e8689-ea65-43c0-8ffc-22dda7d23175-scaled.jpg,,"Als Berliner Retailer für Hüte und Mützen leben wir von unseren drei Geschäften, die aufgrund des Covid-19 Virus bis auf weiteres geschlossen werden mussten. Aufgrund immenser Kosten für die Instandhaltung der Firma sind auch wir auf Hilfen/Spenden in jeglicher Form angewiesen. Wir freuen uns über euren Support."
helfenberlin,,Restaurant Dos,"Kurfürstendamm 129b, 10711 Berlin",52.4962136,13.2884043,Berlin,Germany,,,,https://helfen-shop.berlin/dein-unternehmen/restaurant-dos/,https://helfen-shop.berlin/wp-content/uploads/2020/03/d693e2c3-0581-43ba-9e7d-b2d16b23bc1a.jpg,,In unserem Restaurant „Dos“ am Halensee kannst du frische mexikanisch- Spanische Gerichte und tolle Cocktails bei einer lockeren Atmosphäre genießen. Wir sind bekannt für unsere regelmäßigen Salsa-Partys und deshalb möchten wir unseren Gästen und Freunden auch nach dieser schweren Zeit wieder tolle Abende bereiten. Wir bedanken uns für deine Unterstützung. Bleib gesund und positiv!
helfenberlin,,Frame Punk GmbH,"Manteuffelstraße 48, 10999 Berlin",52.4983167,13.4253045,Berlin,Germany,,,,https://helfen-shop.berlin/dein-unternehmen/frame-punk-gmbh/,https://helfen-shop.berlin/wp-content/uploads/2020/03/a4c39160-785c-43ff-b56f-34e2173d7e41-scaled.jpg,,"Für die Unterstützung unseres Unternehmens bieten wir Gutscheine an für die Menschen, die aktuell nicht den Weg zu uns finden können aber in der Zukunft. Die Gutscheine sind unbefristet und gehen in die Sicherung unserer Arbeitsplätze."
helfenberlin,,Maikes Haar Oase,"Hindenburgdamm 57 d, 12203 Berlin",52.4460584,13.3157221,Berlin,Germany,,,,https://helfen-shop.berlin/dein-unternehmen/maikes-haar-oase/,https://helfen-shop.berlin/wp-content/uploads/2020/03/4041a073-db22-4178-935e-f8bb7a12fa68-scaled.jpg,,Durch die Coronakrise ist auch mein kleines Unternehmen in Schieflage geraten …mein Teamund ich freuen uns über Eure Unterstützung …Danke
helfenberlin,,Restaurant Treptower Klause,"Karl-Kunger-Str. 69, 12435 Berlin",52.4928654,13.4452441,Berlin,Germany,,,,https://helfen-shop.berlin/dein-unternehmen/restaurant-treptower-klause/,https://helfen-shop.berlin/wp-content/uploads/2020/03/32327d90-60c2-44df-9101-d39d5f1fbdda.jpg,,Kiezrestaurant
helfenberlin,,Blau-Weiss Hockeylounge,"Eichhörnchensteig 1, 14193 Berlin",52.474201,13.2700986,Berlin,Germany,,,,https://helfen-shop.berlin/dein-unternehmen/blau-weiss-hockeylounge/,https://helfen-shop.berlin/wp-content/uploads/2020/03/8d87d918-5245-44df-b215-f6aaaab2e676.jpg,,Wir freuen uns auf euch!
helfenberlin,,Touristinformation Neukölln,"Karl-Marx-Straße 83, 12043 Berlin",52.4814876,13.4352296,Berlin,Germany,,,,https://helfen-shop.berlin/dein-unternehmen/touristinformation-neukoelln/,https://helfen-shop.berlin/wp-content/uploads/2020/03/81494f81-4f67-40d1-802d-62597fa75362.jpg,,Selbst finanzierte Touristinformation Neukölln will weiter leben
helfenberlin,,KRONSOHN HAAR.KUNST.MODE,"Proskauer Straße 30, 10247 Berlin",52.5168832,13.4607647,Berlin,Germany,,,,https://helfen-shop.berlin/dein-unternehmen/kronsohn-haar-kunst-mode/,https://helfen-shop.berlin/wp-content/uploads/2020/03/5284dad3-5df3-43a8-8666-562054ecb3b7.jpeg,,Friseurgeschäft
helfenberlin,,The MyMoon Restaurant,"Alt Reinickendorf 3, 13407 Berlin",52.5744685,13.3586526,Berlin,Germany,,,,https://helfen-shop.berlin/dein-unternehmen/the-mymoon-restaurant/,https://helfen-shop.berlin/wp-content/uploads/2020/03/7d3d7033-81f1-43d8-bfd8-6ea441fa95ba.jpeg,,The MyMoon Restaurant #enjoythedifference
helfenberlin,,Das Sachsenhaus,"Markgrafenstraße 39, 10117 Berlin",52.51457,13.39333,Berlin,Germany,,,,https://helfen-shop.berlin/dein-unternehmen/das-sachsenhaus/,https://helfen-shop.berlin/wp-content/uploads/2020/03/c028663c-7412-4026-bbec-9ff37a8f846d.jpg,,Holzkunst und Plauener Spitze Made in Germany
helfenberlin,,Tante Anna Café,"Gutenbergstraße 103, 14467 Berlin",52.4010818,13.0516398,Berlin,Germany,,,,https://helfen-shop.berlin/dein-unternehmen/tante-anna-cafe/,https://helfen-shop.berlin/wp-content/uploads/2020/03/905ea0e1-7c9d-4238-96f4-d74d1b9204bb-scaled.jpg,,Wir sind ein Familiencafé im Herzen Potsdams.
helfenberlin,,Asia River,"Tamara-Danz-Str. 11, 10243 Berlin",52.5060818,13.4465683,Berlin,Germany,,,,https://helfen-shop.berlin/dein-unternehmen/asia-river/,https://helfen-shop.berlin/wp-content/uploads/2020/03/678d1178-7688-4d44-a106-1a9df01aa5e9.jpg,,Wir halten durch und sagen Danke!
helfenberlin,,C 37,"Choriner Strasse 37, 10435 Berlin",52.53667,13.4109,Berlin,Germany,,,,https://helfen-shop.berlin/dein-unternehmen/c-37/,https://helfen-shop.berlin/wp-content/uploads/2020/03/41f73a7a-c692-47f1-be67-d4503f299315.jpg,,Conceptstore for Kids & Teens
helfenberlin,,Tekin Änderungsatelier,"Hermannstr.214- 216, 12049 Berlin",52.4788489,13.4272755,Berlin,Germany,,,,https://helfen-shop.berlin/dein-unternehmen/tekin-aenderungsatelier/,https://helfen-shop.berlin/wp-content/uploads/2020/03/561ff173-4cd2-4d93-8ead-fe0c14907253-scaled.jpg,,Familienbetrieb Handwerk/Änderungsschneiderei/ Reinigungsannahme
helfenberlin,,Kosmetikstudio Gesund&Schön,"Hohenstaufenstr. 32, 10779 Berlin",52.4945136,13.3413256,Berlin,Germany,,,,https://helfen-shop.berlin/dein-unternehmen/kosmetikstudio-gesundschoen/,https://helfen-shop.berlin/wp-content/uploads/2020/03/d7ab6d6d-f96c-4de1-b816-d6c7710217fc-scaled.jpg,,Kosmetikstudio und med. Fußpflege
helfenberlin,,Freiwald Kosmetik,"Berliner Straße 127, 15569 Berlin",52.4517662,13.7485204,Berlin,Germany,,,,https://helfen-shop.berlin/dein-unternehmen/freiwald-kosmetik/,https://helfen-shop.berlin/wp-content/uploads/2020/03/Freiwald-Kosmetik-250320.jpg,,Helfen Sie unserem kleinen Kosmetikstudio über die schwere Zeit indem Sie Behandlungsgutscheine kaufen
helfenberlin,,Li.ke Thai Vagan Restaurant,"Grünbergerstraße 69, 10245 Berlin",52.5116085,13.4584749,Berlin,Germany,,,,https://helfen-shop.berlin/dein-unternehmen/li-ke-thai-vagan-restaurant/,https://helfen-shop.berlin/wp-content/uploads/2020/03/Li.ke-Thai-Vagan-Restaurant_27032020.jpeg,,Wir bieten authentische Thai Vegan Gerichte an.
helfenberlin,,Ayurveda Kalari Berlin,"Marienburger Str. 8, 10405 Berlin",52.5343,13.42383,Berlin,Germany,,,,https://helfen-shop.berlin/dein-unternehmen/ayurveda-kalari-berlin/,https://helfen-shop.berlin/wp-content/uploads/2020/03/Ayurveda-Kalari-Berlin-250320.jpeg,,Dies ist Woche 2 für uns und unser Team ohne jegliche Einnahmen! Wir würden uns daher sehr über Unterstützung von Euch freuen!!!
helfenberlin,,Bluebird Eistörtchen Manufaktur,"Leonhardtstraße 8-9, 14057 Berlin",52.5055223,13.2972098,Berlin,Germany,,,,https://helfen-shop.berlin/dein-unternehmen/bluebird-eistoertchen-manufaktur/,https://helfen-shop.berlin/wp-content/uploads/2020/03/Kaffee_2.jpg,,"Das Bluebird ist ein kleines Kiezcafé ausgestattet mit amerikanischen, englischen und berlinerischen Leckereien – süß und herzhaft"
helfenberlin,,Vilarnau Salon,"manteuffelstrase 55, 10999 Berlin",52.4975012,13.4245883,Berlin,Germany,,,,https://helfen-shop.berlin/dein-unternehmen/vilarnau-salon/,https://helfen-shop.berlin/wp-content/uploads/2020/03/Vilarnau-Salon-250320-scaled.jpg,,Wir sind ein kleine friseur laden mit 2 Plätze im Reichenberger Kiez.
helfenberlin,,Ristorante Sole,"Frankfurter Allee 7, 10247 Berlin",52.5161281,13.4564732,Berlin,Germany,,,,https://helfen-shop.berlin/dein-unternehmen/ristorante-sole/,https://helfen-shop.berlin/wp-content/uploads/2020/03/Ristorante-Sole-250320.jpg,,Ein schönes italienisches Restaurant im Herzen Berlin-Friedrichshain am Frankfurter Tor!
helfenberlin,,friedland&partner,"Belziger Strasse 28, 10823 Berlin",52.4871192,13.3530847,Berlin,Germany,,,,https://helfen-shop.berlin/dein-unternehmen/friedlandpartner/,https://helfen-shop.berlin/wp-content/uploads/2020/03/friedland_partner_27032020.jpeg,,Geschäft für internationale Mode und Accessoires
helfenberlin,,"Bibliotheca-Culinaria, Kochbuchantiquariat","Zehdenicker Str. 16, 10119 Berlin",52.531052,13.4037438,Berlin,Germany,,,,https://helfen-shop.berlin/dein-unternehmen/bibliotheca-culinaria-kochbuchantiquariat/,https://helfen-shop.berlin/wp-content/uploads/2020/03/Bibliotheca-Culinaria-Kochbuchantiquariat_25032020.jpg,,Über 50 000 Kochbücher aus 3 Jahrhunderten
helfenberlin,,anabelas Kitchen,"Pestalozzistrasse 3, 10625 Berlin",52.5079058,13.3197047,Berlin,Germany,,,,https://helfen-shop.berlin/dein-unternehmen/anabelas-kitchen/,https://helfen-shop.berlin/wp-content/uploads/2020/03/anabelas-Kitchen-250320-scaled.jpg,,"Herzlich Willkommen im anabelas Kitchen!
 Lassen Sie sich von uns in das Ambiente eines typischen portugiesischen Wohnzimmers versetzen und fühlen Sie sich wie zuhause."
helfenberlin,,VILLA RUH,"Nassauische Str. 62, 10717 Berlin",52.4928975,13.3270722,Berlin,Germany,,,,https://helfen-shop.berlin/dein-unternehmen/villa-ruh/,https://helfen-shop.berlin/wp-content/uploads/2020/03/VILLA-RUH-250320.jpg,,"Dänische Home Accessoires, Schmuck + Interior Design, Berliner Beauty Produkte + Schokolade"
helfenberlin,,Meet Me By The Baobab Tree,"Soldiner Strasse 41, 13359 Berlin",52.5602536,13.3813398,Berlin,Germany,,,,https://helfen-shop.berlin/dein-unternehmen/meet-me-by-the-baobab-tree/,https://helfen-shop.berlin/wp-content/uploads/2020/03/Kaffee_1.jpg,,?
helfenberlin,,Fotostudio Fügener,"Laubacher Straße 36, 14197 Berlin",52.47494,13.31988,Berlin,Germany,,,,https://helfen-shop.berlin/dein-unternehmen/fotostudio-fuegener/,https://helfen-shop.berlin/wp-content/uploads/2020/03/Fotostudio-F%C3%BCgener-250320.jpg,,"Ich fotografiere alles vom Passfoto, Bewerbungsfotos, Familenfotos, bis zu Produkt- und Businessfotografie. Sie können einen Gutschein erwerben und zu einem späteren Zeitpunkt einlösen. Produktfotos und Ourdoorfotografie ist auch jetzt möglich."
helfenberlin,,Die Gestalterei,"Christburgerstr. 30, 10405 Berlin",52.53547,13.42895,Berlin,Germany,,,,https://helfen-shop.berlin/dein-unternehmen/die-gestalterei/,https://helfen-shop.berlin/wp-content/uploads/2020/03/Die-Gestalterei-250320.jpeg,,"Wir nähen Schultüten aus Stoff, Geburtstagsshirts und Kinderzeichnungen auf Kissen uvm…"
helfenberlin,,Marinella Berlin,"Unter den Eichen 94, 12205 Berlin",52.44453,13.2916,Berlin,Germany,,,,https://helfen-shop.berlin/dein-unternehmen/marinella-berlin/,https://helfen-shop.berlin/wp-content/uploads/2020/03/Nudel_1.jpg,,Wer nicht jetzt wirbt der Stirbt
helfenberlin,,Der Schnapphahn in der Babinischen Republik,"Dresdener Straße 14, 10999 Berlin",52.5009967,13.4171789,Berlin,Germany,,,,https://helfen-shop.berlin/dein-unternehmen/der-schnapphahn-in-der-babinischen-republik/,https://helfen-shop.berlin/wp-content/uploads/2020/03/Der-Schnapphahn-in-der-Babinischen-Republik-240320.jpg,,"Verkauf von Edelbränden und Weinen, Literaturveranstaltungen “Reihe 21:11”, Ausschank"
helfenberlin,,Tirelli’s,"Kreuzbergstrasse 29, 10965 Berlin",52.48997,13.3778399,Berlin,Germany,,,,https://helfen-shop.berlin/dein-unternehmen/tirellis/,https://helfen-shop.berlin/wp-content/uploads/2020/03/Tirelli_s_25032020.jpeg,,True Italian Food
helfenberlin,,Muret la barba,"Rosenthaler Str. 61, 10119 Berlin",52.5275428,13.4035397,Berlin,Germany,,,,https://helfen-shop.berlin/dein-unternehmen/muret-la-barba/,https://helfen-shop.berlin/wp-content/uploads/2020/03/Muret-la-barba-250320.jpeg,,Italienische Weinbar und Restaurant in Mitte
helfenberlin,,HAARWERKSTATT – Stuttgarter Platz 1,"Stuttgarter Platz 1, 10627 Berlin",52.5058455,13.306387,Berlin,Germany,,,,https://helfen-shop.berlin/dein-unternehmen/haarwerkstatt-stuttgarter-platz-1/,https://helfen-shop.berlin/wp-content/uploads/2020/03/Salon-Stuttgarter-Platz1.jpg,,WIR SAGEN DANKE!
helfenberlin,,DAS CLUBHAUS,"Roedernstraße 16-18, 13053 Berlin",52.5446189,13.4860078,Berlin,Germany,,,,https://helfen-shop.berlin/dein-unternehmen/das-clubhaus/,https://helfen-shop.berlin/wp-content/uploads/2020/03/Musik_1.jpg,,DAS CLUBHAUS ist ein nettes kleines Kiezlokal mitten in Alt-Hohenschönhausen.
helfenberlin,,Naturkosmetik Lotte,"Prenzlauer Allee 40, 10405 Berlin",52.53566,13.42256,Berlin,Germany,,,,https://helfen-shop.berlin/dein-unternehmen/naturkosmetik-lotte/,https://helfen-shop.berlin/wp-content/uploads/2020/03/Hand_1.jpg,,"Um aufgrund der bestehenden Situation eine Insolvenz abzuwenden und unseren schönen Laden mit seinen fünf Arbeitsplätzen zu erhalten, bitten wir um Unterstützung durch den Kauf von Gutscheinen oder einem Besuch im noch geöffneten Geschäft."
helfenberlin,,Schuhtanten,"Paul-Lincke-Ufer 44, 10999 Berlin",52.4964755,13.420758,Berlin,Germany,,,,https://helfen-shop.berlin/dein-unternehmen/schuhtanten/,https://helfen-shop.berlin/wp-content/uploads/2020/03/Schuhtanten-240320.jpg,,"Seit 20 Jahren verkaufen wir Schuhe, Bekleidung und Accessoires an die Kreuzberger Kunden"
helfenberlin,,TS Burger,"Carl-Schurz-Str. 61, 13597 Berlin",52.5394019,13.2052854,Berlin,Germany,,,,https://helfen-shop.berlin/dein-unternehmen/ts-burger/,https://helfen-shop.berlin/wp-content/uploads/2020/03/Besteck_1.jpg,,Danke im voraus für eure Unterstützung
helfenberlin,,EINSTEIN Unter den Linden,"Unter den Linden 42, 10117 Berlin",52.5174343,13.3859139,Berlin,Germany,,,,https://helfen-shop.berlin/dein-unternehmen/einstein-unter-den-linden/,https://helfen-shop.berlin/wp-content/uploads/2020/03/EINSTEIN-Unter-den-Linden_24032020.jpg,,Das EINSTEIN Unter den Linden ist ein Restaurant und Kaffeehaus mit österreichischer Spitzen Küche am Pracht Boulevard unweit vom Brandenburger Tor
helfenberlin,,optiKing,"Eberswalder Str. 34, 10437 Berlin",52.5414703,13.4093767,Berlin,Germany,,,,https://helfen-shop.berlin/dein-unternehmen/optiking/,https://helfen-shop.berlin/wp-content/uploads/2020/03/optiKing-240320.jpg,,"Was den Laden auszeichnet, ist die große, besondere Auswahl der erstaunlichsten und außergewöhnlichsten Brillen und Sonnenbrillen-Raritäten aus Anfang der 50er bis Mitte der 90er Jahre."
helfenberlin,,Lija.Berlin,"Fürbringerstraße 31, 10961 Berlin",52.4934093,13.3945737,Berlin,Germany,,,,https://helfen-shop.berlin/dein-unternehmen/lija-berlin/,https://helfen-shop.berlin/wp-content/uploads/2020/03/Lija.Berlin_24032020.jpeg,,Friseur
helfenberlin,,Fräulein Schneefeld & Herr Hund,"Prenzlauer Allee 23, 10405 Berlin",52.5319994,13.4205,Berlin,Germany,,,,https://helfen-shop.berlin/dein-unternehmen/fraeulein-schneefeld-herr-hund/,https://helfen-shop.berlin/wp-content/uploads/2020/03/Fr%C3%A4ulein-Schneefeld-_-Herr-Hund_26032020.jpg,,Wir sind eine Chocolaterie & Buchhandlung.
helfenberlin,,AMPELMANN,"Unter den Linden 35, 10117 Berlin",52.5166339,13.3886326,Berlin,Germany,,,,https://helfen-shop.berlin/dein-unternehmen/ampelmann/,https://helfen-shop.berlin/wp-content/uploads/2020/03/AMPELMANN-240320.jpg,,Die Berliner Kultmarke
helfenberlin,,Wohnzimmer,"Paul-Lincke-Ufer 44, 10999 Berlin",52.4964755,13.420758,Berlin,Germany,,,,https://helfen-shop.berlin/dein-unternehmen/wohnzimmer/,https://helfen-shop.berlin/wp-content/uploads/2020/03/Wohnzimmer-240320-scaled.jpg,,Du kennst uns…Du liebst uns…Wir lieben dich auch
helfenberlin,,Tapiocaria Berlin,"Samariterstraße 34A, 10247 Berlin",52.5161845,13.4648335,Berlin,Germany,,,,https://helfen-shop.berlin/dein-unternehmen/tapiocaria-berlin/,https://helfen-shop.berlin/wp-content/uploads/2020/03/Tapiocaria-Berlin-_24032020.jpg,,"Typisch Brasilianische Küche, 6 Monate nach der Eröffnung trifft uns Corona"
helfenberlin,,Kosmetikstudio Edler Wellness,"Gardeschützenweg 90, 12203 Berlin",52.4457986,13.3039076,Berlin,Germany,,,,https://helfen-shop.berlin/dein-unternehmen/kosmetikstudio-edler-wellness/,https://helfen-shop.berlin/wp-content/uploads/2020/03/Hand_1.jpg,,Corona Krise
helfenberlin,,Weinverein rote Insel,"Leuthener Strasse 5, 10829 Berlin",52.4812562,13.3611097,Berlin,Germany,,,,https://helfen-shop.berlin/dein-unternehmen/weinverein-rote-insel/,https://helfen-shop.berlin/wp-content/uploads/2020/03/Weinverein-rote-Insel_24032020.jpg,,Weinstube mit -handlung
helfenberlin,,Mahlzeit Kreuzberg,"Alexandrinenstr. 1a, 10969 Berlin",52.4988182,13.4000906,Berlin,Germany,,,,https://helfen-shop.berlin/dein-unternehmen/mahlzeit-kreuzberg/,https://helfen-shop.berlin/wp-content/uploads/2020/03/Mahlzeit-Kreuzberg_26032020-scaled.jpg,,"Mahlzeit Kreuzberg ist ein kleines, gemütliches Bistro mitten in Berlin. Bereits seit 7 Jahren kochen & backen wir mit saisonalen Zutaten, Leidenschaft und ohne festes Menü täglich für euch frisch… frei nach Berliner Schnauze"
helfenberlin,,Tanzschule Zielonka,"Frankenholzer Weg 4, 12683 Berlin",52.5111632,13.5649861,Berlin,Germany,,,,https://helfen-shop.berlin/dein-unternehmen/tanzschule-zielonka/,https://helfen-shop.berlin/wp-content/uploads/2020/03/Tanzschule-Zielonka-230320.jpg,,"Bitte tanzen Sie weiter, denn gerade in so herausfordernden Zeiten, wie im Moment, wollen wir weiterhin Freude in Ihr Leben bringen, die Lebensqualität steigern und damit Ihr Immunsystem stärken."
helfenberlin,,Eli Eis Manufaktur,"Carl-Schurtz-Str.35, 13597 Berlin",52.5373616,13.2030691,Berlin,Germany,,,,https://helfen-shop.berlin/dein-unternehmen/eli-eis-manufaktur/,https://helfen-shop.berlin/wp-content/uploads/2020/03/Eli-Eis-Manufaktur-230320-scaled.jpg,,Italienische Manufaktur mit Liebe
helfenberlin,,SenfSalon,"Hagelberger Str. 46, 10965 Berlin",52.4913675,13.3840126,Berlin,Germany,,,,https://helfen-shop.berlin/dein-unternehmen/senfsalon/,https://helfen-shop.berlin/wp-content/uploads/2020/03/Senfspezialita%CC%88ten-Chutneys-Marmeladen-und-andere-Leckereien-hergestellt-in-Kreuzberg.-230320.jpg,,"Senfspezialitäten, Chutneys, Marmeladen und andere Leckereien, hergestellt in Kreuzberg."
helfenberlin,,Zeroliq Bar,"Boxhagener Str. 104, 10245 Berlin",52.51268,13.459277,Berlin,Germany,,,,https://helfen-shop.berlin/dein-unternehmen/zeroliq-bar/,https://helfen-shop.berlin/wp-content/uploads/2020/03/Zeroliq-Bar_230320-scaled.jpg,,alkoholfreie Bar
helfenberlin,,harmony living & fashion,"Kopernikusstraße 12, 10245 Berlin",52.5102136,13.4539227,Berlin,Germany,,,,https://helfen-shop.berlin/dein-unternehmen/harmony-living-fashion/,https://helfen-shop.berlin/wp-content/uploads/2020/03/Hand_1.jpg,,"Shop für Wohnaccessoires, Geschenkartikel und Bekleidung"
helfenberlin,,Schlupfladen – Arminiusmarkthalle,"Arminiusstrasse 2-4, 10551 Berlin",52.527491,13.3385216,Berlin,Germany,,,,https://helfen-shop.berlin/dein-unternehmen/schlupfladen-arminiusmarkthalle/,https://helfen-shop.berlin/wp-content/uploads/2020/03/Schlupfladen-Arminiusmarkthalle-240320-scaled.jpg,,Ein kleiner Geschenkeladen mit Postkarten und einer Riesenauswahl an Kleinigkeiten.
helfenberlin,,Princess Cheesecake,"Tucholskystraße 37, 10117 Berlin",52.52677,13.39282,Berlin,Germany,,,,https://helfen-shop.berlin/dein-unternehmen/princess-cheesecake/,https://helfen-shop.berlin/wp-content/uploads/2020/03/Princess-Cheesecake-250320.jpg,,"Sie die zukünftige Prinzessin, der zukünftige Prinz. Helft dem Käsekuchenparadies mit einem Gutschein!"
helfenberlin,,home on earth,"Rosenthalerstr. 40, 10178 Berlin",52.5240159,13.4023943,Berlin,Germany,,,,https://helfen-shop.berlin/dein-unternehmen/home-on-earth/,https://helfen-shop.berlin/wp-content/uploads/2020/03/home-on-earth-250320.jpg,,Helfe home on earth und setze damit ein statement in Sachen fair trade und Nachhaltigkeit
helfenberlin,,Kinderbauernhof Beaumont Farm,"Freidorfer Str. 27, 17219 Möllenhagen",53.4944892,12.9121859,Möllenhagen,Germany,,,,https://helfen-shop.berlin/dein-unternehmen/kinderbauernhof-beaumont-farm/,https://helfen-shop.berlin/wp-content/uploads/2020/03/Kinderbauernhof-Beaumont-Farm-240320.png,,"Unser deutsch-englischer Kinderbauernhof braucht, bedingt durch den Wegfall aller Kindergruppen, eure Hilfe."
helfenberlin,,Stuzzico Pizzabar,"Augsburger Str. 29, 10789 Berlin",52.5014367,13.3343856,Berlin,Germany,,,,https://helfen-shop.berlin/dein-unternehmen/stuzzico-pizzabar/,https://helfen-shop.berlin/wp-content/uploads/2020/03/Hand_1.jpg,,"Italienisches Bistro, Pizzeria"
helfenberlin,,Kathi & Friseure Meisterbetrieb und Visagistik,"Bennigsenstraße 13, 12159 Berlin",52.47657,13.3407699,Berlin,Germany,,,,https://helfen-shop.berlin/dein-unternehmen/kathi-friseure-meisterbetrieb-und-visagistik/,https://helfen-shop.berlin/wp-content/uploads/2020/03/Hand_1.jpg,,"Ihr Lieben,
 Hier könnt ihr uns unterstützen in dieser kritischen Zeit! Wir hoffen das es nicht lange dauert und wir uns bald im Salon wiedersehen! Passt auf euch auf und bleibt gesund!
 Eure Gabi und Kathi"
helfenberlin,,Café Vilja,"Maximilianstraße 1, 13187 Berlin",52.5613572,13.4126525,Berlin,Germany,,,,https://helfen-shop.berlin/dein-unternehmen/cafe-vilja/,https://helfen-shop.berlin/wp-content/uploads/2020/03/532d8a1b-ba32-4c3c-80c6-63bf16cca454-scaled.jpeg,,"Geld hatte ich nie, wollte immer nur Kaffee trinken…"
helfenberlin,,LOCKE & GLATZE Glasbläserallee,"Glasbläserallee 17, 10245 Berlin",52.4976569,13.4683521,Berlin,Germany,,,,https://helfen-shop.berlin/dein-unternehmen/locke-glatze-glasblaeserallee/,https://helfen-shop.berlin/wp-content/uploads/2020/03/2736ac6c-8e61-4056-b320-bf4fb7ae41a1.jpg,,Wir sind auf der Halbinsel Stralau gerade an den Start gegangen und wollen gerne bleiben. DANKE!
helfenberlin,,The Dorothy Bar,"Kollwitzstrasse 41, 10405 Berlin",52.53429,13.41529,Berlin,Germany,,,,https://helfen-shop.berlin/dein-unternehmen/the-dorothy-bar/,https://helfen-shop.berlin/wp-content/uploads/2020/03/f6334d53-d74e-44a3-b3c8-4c9d31ce3771.jpg,,Cozy Bar with signature Drinks and magic atmosphere
helfenberlin,,crusz Berlin,"Spittelmarkt 11-12, 10117 Berlin",52.5120023,13.4017506,Berlin,Germany,,,,https://helfen-shop.berlin/dein-unternehmen/crusz-berlin/,https://helfen-shop.berlin/wp-content/uploads/2020/03/9cee68a0-ca30-48d0-9b1a-9fdcb99b42dd.jpg,,Berlins geliebter Concept Store für einmalig schöne Abend- und Brautkleider
helfenberlin,,Restaurant Malche am See / Catering Igel,"Gabrielenstraße 77, 13507 Berlin",52.5899475,13.2679105,Berlin,Germany,,,,https://helfen-shop.berlin/dein-unternehmen/restaurant-malche-am-see-catering-igel/,https://helfen-shop.berlin/wp-content/uploads/2020/03/Hand_1.jpg,,"Unser Restaurant Malche am See liegt in Tegel direkt am Wasser und bietet von der großzügigen Terrassen einen wundervollen Blick auf den Tegeler See. Gekocht wird frische deutsch-internationale Küche und wir bieten für jeden Geschmack das passende Gericht., Bleibt gesund!"
helfenberlin,,Thomas-Eck,"Pestalozzistaße 25, 10627 Berlin",52.5079733,13.3088545,Berlin,Germany,,,,https://helfen-shop.berlin/dein-unternehmen/thomas-eck/,https://helfen-shop.berlin/wp-content/uploads/2020/03/bce1cdb7-3a8c-4d37-a898-2407c9b1532c.jpg,,Echte Deutsche Mutti-Küche
helfenberlin,,Weinladen Schmidt Prenzlauer Berg,"Kollwitzstrasse 50, 10405 Berlin",52.5344959,13.4165304,Berlin,Germany,,,,https://helfen-shop.berlin/dein-unternehmen/weinladen-schmidt-prenzlauer-berg/,https://helfen-shop.berlin/wp-content/uploads/2020/03/acb118bf-a9bc-4adf-9327-95b9e078119a.jpg,,"Ausgesuchte Weine am Kollwitzplatz, Von vielen als schönste Filiale vom Weinladen Schmidt gepriesen, liegt die Weinhandlung mitten im pulsierenden „Kolle-Kiez“, in Prenzlauer Berg. Der Kollwitzplatz ist nur einen Korkenknall entfernt, Schönhauser und Prenzlauer Allee direkt um die Ecke. Zu Fuß schlendert man in höchstens 5 Minuten zur U-Bahn Senefelderplatz. Der gesamte Kollwitzkiez ist ein Magnet für Einheimische und Touristen und zieht die Menschen mit seinen Bars, Restaurants und Geschäften magisch an. Der weit über die Grenzen von Prenzlauer Berg und Berlin berühmte Kollwitzmarkt findet am Samstag und Donnerstag direkt vor unserer Haustür statt – schauen Sie doch danach auf ein Glas Wein bei uns herein., Unsere Weinbar lädt zum Verkosten ein, Das besonderes Highlight unserer Filiale am Kollwitzplatz: Die Weine können in der dazugehörigen Weinbar gleich vor Ort verkostet und genossen werden! Das Konzept, Weinhandel und Weinbar direkt unter einem Dach zu vereinen, hat sich bewährt. Viele Kunden schätzen das lockere Ambiente in Kombination mit unserem ausgesuchten Angebot. Sie sind eingeladen, ungezwungen zu Fachsimpeln – oder einfach in Ruhe Ihren Lieblingswein zu genießen., Darüber hinaus bieten wir in unseren Filialen auch ständig Verkostungen, Wein-Seminare und andere Veranstaltungen an., Spitzenwein und spitzen Weinberatung in Prenzlauer Berg, Bei uns finden Sie dauerhaft über 1000 Weine, Schaumweine und Spirituosen von deutschen und europäischen Winzern im Sortiment. Wein ist für uns keine bloße Handelsware, sondern ein wertvolles Kulturgut. Wir verstehen uns dabei gleichermaßen als Partner für Weinliebhaber und Winzer. Die langjährige und teils freundschaftliche Verbindung zu unseren Winzern erlaubt uns gleichzeitig stets die besten Weine anzubieten und Sie, unsere Kunden, bestmöglich zu beraten – denn wir kennen unsere Weine und die Philosophie dahinter genau."
helfenberlin,,Vaust Braugaststätte,"Pestalozzistraße 8, 10625 Berlin",52.5077152,13.318404,Berlin,Germany,,,,https://helfen-shop.berlin/dein-unternehmen/vaust-braugaststaette/,https://helfen-shop.berlin/wp-content/uploads/2020/03/e4222fc1-aac0-4613-8224-ae1fbeb3e694.jpg,,Vegane Gasthausbrauerei
helfenberlin,,sonntag berlin,"Danziger Straße 10, 10435 Berlin",52.5406514,13.4138639,Berlin,Germany,,,,https://helfen-shop.berlin/dein-unternehmen/sonntag-berlin/,https://helfen-shop.berlin/wp-content/uploads/2020/03/05e7b4a8-8290-4ad5-9545-ea95336c26a6.jpg,,Laden für Kleidung mit eigenem Label
helfenberlin,,Café Lama,"Hohenzollerndamm 7, 10717 Berlin",52.49552,13.32767,Berlin,Germany,,,,https://helfen-shop.berlin/dein-unternehmen/cafe-lama/,https://helfen-shop.berlin/wp-content/uploads/2020/03/af5db1af-f63b-4c37-8a66-276a6c879fd8.jpg,,"Hey! Gerade alles nur Take-Away, aber wenn das alles vorbei ist bedienen wir euch sehr gerne mit exzellentem Kaffee, frisch gepressten Säften, hausgemachten Kuchen, täglich frischem Lunch und vielem mehr! Bei uns herrscht immer eine familiäre Atmosphäre zwischen Ruhe und Trubel"
